     2.11           OBSERVATION DATA    G (GPS)             RINEX VERSION / TYPE
teqc  2015Nov6      root                20170306 03:43:28UTCPGM / RUN BY / DATE
Linux 2.4.21-27.ELsmp|Opteron|gcc|Linux x86_64|=+           COMMENT
teqc  2015Nov6      NOAA/NOS/NGS/CORS   20160106 03:33:55UTCCOMMENT
Solaris x86 5.10|AMD64|cc SC5.8 -xarch=amd64|=+|=+          COMMENT
teqc  2015Nov6      NOAA/NOS/NGS/CORS   20160106 03:33:39UTCCOMMENT
teqc  2015Nov6      UNAVCO Archive Ops  20160104 21:59:29UTCCOMMENT
BIT 2 OF LLI FLAGS DATA COLLECTED UNDER A/S CONDITION       COMMENT
input file: cat2201601010000a.tgd                           COMMENT
RINEX file created by UNAVCO GPS Archive.                   COMMENT
For more information contact archive@unavco.org             COMMENT
Monument ID: 18474                                          COMMENT
UNAVCO 4-char name:   CAT2                                  COMMENT
4-char name from Log or data file: CAT2                     COMMENT
Monument location: 33.311616 -118.333815 477.2619           COMMENT
Visit ID: 102361                                            COMMENT
End of DB comments                                          COMMENT
 SNR is mapped to RINEX snr flag value [0-9]                COMMENT
  L1 & L2: min(max(int(snr_dBHz/6), 0), 9)                  COMMENT
teqc edited: all SBAS satellites excluded                   COMMENT
teqc edited: all Compass satellites excluded                COMMENT
teqc edited: all QZSS satellites excluded                   COMMENT
Forced Modulo Decimation to 30 seconds                      COMMENT
CAT2                                                        MARKER NAME
49728M001                                                   MARKER NUMBER
Freddy Blume        UNAVCO                                  OBSERVER / AGENCY
4611206690          TRIMBLE NETRS       1.3-0               REC # / TYPE / VERS
CR519991910         ASH701945B_M    SCIT                    ANT # / TYPE
 -2532493.0840 -4696709.8100  3483154.4160                  APPROX POSITION XYZ
        0.0083        0.0000        0.0000                  ANTENNA: DELTA H/E/N
     1     1                                                WAVELENGTH FACT L1/2
     7    L1    L2    C1    P2    S1    S2    C2            # / TYPES OF OBSERV
    30.0000                                                 INTERVAL
teqc.w windowed: start @ 2016 Jan  1 00:00:00.000           COMMENT
teqc.w windowed:  end  @ 2016 Jan  2 00:00:00.000           COMMENT
teqc.w edited: all GLONASS satellites excluded              COMMENT
teqc.w edited: all SBAS satellites excluded                 COMMENT
teqc.w edited: all Galileo satellites excluded              COMMENT
teqc.w edited: all Compass satellites excluded              COMMENT
teqc.w edited: all QZSS satellites excluded                 COMMENT
  2016     1     1     0     0    0.0000000     GPS         TIME OF FIRST OBS
                                                            END OF HEADER
 16  1  1  0  0  0.0000000  0 11G32G06G07G03G31G11G01G26G09G23G16
 -24660036.996 8 -14397997.49646  21403321.703    21403316.031          50.500
        39.000
  -4971178.220 6  -3857349.905 6  25039790.016    25039791.613          37.600
        37.000    25039791.324
  -3614033.805 6  -3418523.811 5  25087777.805    25087780.398          37.000
        35.100    25087780.285
 -29787739.474 8 -23017581.979 8  20216025.578    20216021.141          50.200
        53.200    20216021.375
  -8194570.812 6  -6344715.517 6  23793880.406    23793875.027          41.100
        39.900    23793874.973
 -36578399.230 5                  25822031.633                          34.600

  -9857600.168 6  -7644726.135 6  23690537.195    23690537.680          38.300
        40.500    23690537.332
 -21331042.983 7 -16637451.605 7  21844755.273    21844752.125          44.200
        47.300    21844752.246
  -9959715.393 7  -8558921.548 6  23974681.984    23974682.234          42.000
        41.800    23974682.063
 -21418591.271 8 -15807046.56646  21737384.016    21737375.531          51.500
        38.200
 -22569754.626 7 -11203230.90145  21606247.703    21606241.504          45.800
        34.600
 16  1  1  0  0 30.0000000  0 11G32G06G07G03G31G11G01G26G09G23G16
 -24595170.180 8 -14347451.95946  21415665.570    21415659.957          49.200
        38.900
  -5016790.756 6  -3892892.220 6  25031110.023    25031111.797          36.900
        37.600    25031111.859
  -3704513.696 6  -3489027.252 5  25070559.625    25070562.805          37.200
        35.000    25070562.340
 -29788087.192 8 -23017852.941 8  20215959.625    20215955.012          51.800
        53.000    20215955.484
  -8096407.945 6  -6268224.969 6  23812560.398    23812553.789          40.900
        40.100    23812554.145
 -36506193.449 5                  25835772.359                          34.200

  -9768774.343 6  -7575511.417 6  23707440.734    23707441.336          37.500
        40.900    23707441.281
 -21330129.027 7 -16636739.391 7  21844930.586    21844926.969          45.700
        47.600    21844926.680
 -10033223.972 6  -8616200.800 6  23960694.469    23960694.016          41.300
        41.700    23960693.785
 -21467138.866 8 -15844875.80746  21728145.688    21728136.969          51.700
        38.200
 -22632182.276 7 -11251875.71945  21594368.672    21594361.828          45.600
        35.600
 16  1  1  0  1  0.0000000  0 11G32G06G07G03G31G11G01G26G09G23G16
 -24529932.807 8 -14296617.66446  21428079.953    21428074.105          50.200
        39.500
  -5061934.107 5  -3928068.943 6  25022519.492    25022521.207          34.600
        37.900    25022521.504
  -3794860.371 6  -3559426.905 5  25053366.742    25053368.633          37.700
        35.400    25053368.637
 -29787892.308 8 -23017701.091 8  20215996.531    20215991.918          53.000
        52.800    20215992.211
  -7998226.911 7  -6191720.293 6  23831243.766    23831237.859          42.600
        40.200    23831237.805
 -36434214.699 5                  25849468.992                          34.100

  -9679873.953 6  -7506238.577 6  23724358.086    23724358.395          38.400
        41.400    23724358.574
 -21328632.378 7 -16635573.137 7  21845214.188    21845210.922          46.000
        47.400    21845210.867
 -10106726.470 6  -8673475.286 6  23946707.320    23946706.867          41.600
        41.800    23946706.813
 -21515595.747 8 -15882634.35446  21718924.664    21718916.473          51.700
        37.700
 -22694117.437 7 -11300136.78845  21582583.039    21582575.844          46.600
        35.700
 16  1  1  0  1 30.0000000  0 11G32G06G07G03G31G11G01G26G09G23G16
 -24464324.892 8 -14245494.64346  21440564.445    21440558.891          49.900
        38.900
  -5106606.006 6  -3962878.267 6  25014018.242    25014020.484          36.900
        38.000    25014021.191
  -3885071.901 6  -3629721.255 5  25036199.852    25036201.684          37.100
        35.200    25036201.922
 -29787153.058 8 -23017125.058 8  20216136.828    20216132.391          51.300
        53.100    20216132.805
  -7900028.662 6  -6115202.193 6  23849929.414    23849924.211          41.900
        40.300    23849924.449
 -36362464.371 5                  25863124.023                          35.400

  -9590901.101 6  -7436909.266 6  23741288.547    23741289.266          38.100
        41.600    23741289.328
 -21326551.712 7 -16633951.804 7  21845609.695    21845606.547          44.100
        47.900    21845606.199
 -10180221.656 7  -8730744.080 6  23932721.000    23932720.898          42.000
        41.600    23932720.609
 -21563960.453 8 -15920321.07846  21709721.109    21709712.508          52.000
        38.700
 -22755556.228 7 -11348011.07545  21570891.023    21570884.648          45.000
        35.500
 16  1  1  0  2  0.0000000  0 11G32G06G07G03G31G11G01G26G09G23G16
 -24398347.597 8 -14194083.80846  21453119.813    21453114.082          49.300
        39.200
  -5150805.408 6  -3997319.399 6  25005607.742    25005609.984          36.900
        36.600    25005609.461
  -3975147.340 6  -3699909.589 5  25019058.555    25019060.797          37.600
        34.700    25019060.391
 -29785868.710 8 -23016124.262 8  20216380.961    20216377.051          50.500
        52.700    20216377.699
  -7801814.826 6  -6038671.951 6  23868619.688    23868613.605          41.300
        39.700    23868613.668
 -36290943.674 5                  25876734.984                          35.300

  -9501858.753 6  -7367525.807 7  23758233.227    23758234.121          39.200
        42.000    23758233.949
 -21323886.776 7 -16631875.201 7  21846117.023    21846113.641          47.100
        47.300    21846113.586
 -10253709.489 6  -8788007.119 6  23918736.820    23918736.543          41.800
        41.800    23918736.488
 -21612232.380 8 -15957935.50946  21700535.383    21700526.254          51.800
        38.200
 -22816495.695 7 -11395496.27645  21559294.391    21559288.074          46.400
        35.700
 16  1  1  0  2 30.0000000  0 11G32G06G07G03G31G11G01G26G09G23G16
 -24332002.351 8 -14142386.23446  21465744.914    21465738.949          49.900
        39.400
  -5194531.543 6  -4031391.725 6  24997287.508    24997289.047          36.300
        37.100    24997288.523
  -4065085.831 6  -3769991.222 5  25001944.969    25001945.277          38.900
        33.400    25001945.164
 -29784039.040 8 -23014698.533 8  20216729.914    20216725.242          51.400
        53.000    20216725.652
  -7703587.752 7  -5962131.395 6  23887311.563    23887305.539          42.400
        39.900    23887306.012
 -36219655.407 5                  25890300.656                          34.600

  -9412750.362 6  -7298090.894 7  23775190.438    23775191.215          39.900
        42.600    23775190.516
 -21320637.748 7 -16629343.457 7  21846735.570    21846732.070          46.400
        47.900    21846731.957
 -10327190.158 6  -8845264.554 6  23904753.695    23904753.477          41.300
        41.900    23904753.656
 -21660411.222 8 -15995477.39946  21691367.164    21691358.094          51.600
        38.800
 -22876933.531 7 -11442590.59345  21547793.539    21547786.930          46.300
        35.600
 16  1  1  0  3  0.0000000  0 11G32G06G07G03G31G11G01G26G09G23G16
 -24265289.885 8 -14090402.52346  21478439.773    21478434.336          49.400
        38.400
  -5237783.000 6  -4065094.142 6  24989056.836    24989058.023          38.200
        38.200    24989058.555
  -4154886.136 6  -3839965.186 5  24984855.070    24984856.551          38.400
        33.800    24984856.145
 -29781662.939 8 -23012847.018 8  20217182.117    20217177.563          51.300
        52.600    20217177.797
  -7605349.058 6  -5885581.795 6  23906005.383    23905999.945          41.200
        40.000    23906000.184
 -36148601.413 5                  25903823.109                          33.800

  -9323578.602 6  -7228606.598 7  23792159.258    23792159.801          40.300
        42.100    23792159.805
 -21316804.023 7 -16626356.100 8  21847464.766    21847461.559          45.200
        48.000    21847461.680
 -10400663.101 7  -8902515.965 6  23890771.828    23890771.844          42.000
        41.500    23890771.555
 -21708496.139 8 -16032946.09346  21682216.703    21682207.984          52.000
        38.200
 -22936866.521 7 -11489291.52845  21536388.500    21536381.656          46.400
        35.900
 16  1  1  0  3 30.0000000  0 11G32G06G07G03G31G11G01G26G09G23G16
 -24198211.423 8 -14038133.63646  21491204.711    21491198.922          49.000
        38.800
  -5280558.822 6  -4098425.902 6  24980917.125    24980918.664          37.400
        37.800    24980918.961
  -4244547.476 6  -3909830.888 5  24967793.469    24967794.715          37.400
        34.000    24967794.426
 -29778739.929 8 -23010569.332 8  20217738.039    20217733.777          51.300
        53.000    20217733.836
  -7507100.216 6  -5809024.292 6  23924702.148    23924696.477          41.500
        39.000    23924696.598
 -36077783.392 5                  25917298.367                          35.400

  -9234346.525 6  -7159075.289 7  23809139.266    23809140.395          39.800
        42.500    23809140.281
 -21312385.617 7 -16622913.150 7  21848305.359    21848302.387          46.400
        47.600    21848302.625
 -10474128.408 7  -8959761.418 6  23876792.047    23876791.359          42.300
        41.700    23876791.422
 -21756486.862 8 -16070341.39246  21673084.367    21673075.355          51.600
        38.900
 -22996292.372 7 -11535597.28746  21525080.438    21525073.652          45.800
        36.200
 16  1  1  0  4  0.0000000  0 11G32G06G07G03G31G11G01G26G09G23G16
 -24130767.756 8 -13985580.15746  21504038.594    21504032.746          48.700
        39.400
  -5322857.654 6  -4131385.964 6  24972866.266    24972869.445          36.900
        38.200    24972869.801
  -4334068.466 6  -3979587.219 5  24950758.602    24950758.969          37.600
        34.800    24950758.973
 -29775269.073 8 -23007864.745 8  20218398.508    20218394.012          49.400
        52.500    20218394.484
  -7408843.093 6  -5732460.305 6  23943399.813    23943393.496          41.300
        39.600    23943394.145
 -36007203.027 5                  25930729.242                          33.400

  -9145056.789 6  -7089499.054 7  23826130.805    23826131.641          39.900
        42.600    23826131.703
 -21307381.958 7 -16619014.150 8  21849257.625    21849254.711          44.100
        48.100    21849254.656
 -10547585.524 7  -9017000.476 6  23862813.719    23862812.973          42.500
        41.700    23862812.801
 -21804382.359 8 -16107662.48846  21663970.148    21663960.961          51.900
        38.800
 -23055207.971 7 -11581505.45346  21513868.688    21513862.723          45.800
        36.600
 16  1  1  0  4 30.0000000  0 11G32G06G07G03G31G11G01G26G09G23G16
 -24062960.190 8 -13932743.13546  21516941.883    21516936.270          48.400
        39.000
  -5364678.547 6  -4163973.605 6  24964909.086    24964910.566          37.400
        37.900    24964910.980
  -4423448.338 6  -4049233.617 5  24933748.844    24933749.914          37.700
        34.700    24933749.742
 -29771249.823 8 -23004732.850 8  20219163.344    20219158.730          51.200
        53.100    20219159.262
  -7310579.691 6  -5655891.447 6  23962098.227    23962092.965          41.100
        40.200    23962093.496
 -35936862.230 5                  25944115.500                          35.200

  -9055712.572 6  -7019880.359 7  23843132.969    23843133.805          40.600
        42.500    23843133.457
 -21301793.062 7 -16614659.124 7  21850321.164    21850317.605          47.100
        47.200    21850317.609
 -10621034.417 6  -9074233.109 6  23848836.000    23848835.723          40.800
        41.900    23848836.371
 -21852181.991 8 -16144908.88146  21654874.172    21654865.336          51.100
        39.400
 -23113610.531 7 -11627013.84346  21502755.320    21502748.594          46.600
        36.200
 16  1  1  0  5  0.0000000  0 11G32G06G07G03G31G11G01G26G09G23G16
 -23994789.822 8 -13879623.41846  21529914.258    21529908.938          48.000
        38.500
  -5406020.550 6  -4196188.091 6  24957042.289    24957043.711          37.500
        37.900    24957043.773
  -4512685.813 6  -4118769.074 5  24916766.383    24916768.566          37.700
        34.400    24916767.984
 -29766681.674 8 -23001173.253 8  20220032.563    20220028.066          51.400
        53.000    20220028.359
  -7212311.651 6  -5579318.963 6  23980797.875    23980792.555          39.900
        39.400    23980792.207
 -35866763.098 5                  25957454.930                          34.600

  -8966316.895 6  -6950221.569 7  23860144.250    23860145.672          39.700
        42.200    23860145.148
 -21295618.876 7 -16609848.025 7  21851496.000    21851492.910          47.000
        47.200    21851492.738
 -10694474.955 6  -9131459.242 7  23834860.492    23834860.273          41.600
        42.000    23834860.043
 -21899885.320 8 -16182080.22746  21645796.633    21645787.445          51.500
        39.100
 -23171497.601 7 -11672120.56646  21491739.930    21491732.734          45.700
        36.500
 16  1  1  0  5 30.0000000  0 11G32G06G07G03G31G11G01G26G09G23G16
 -23926257.714 7 -13826221.80246  21542955.563    21542950.184          47.400
        38.600
  -5446882.668 6  -4228028.638 6  24949266.195    24949267.441          38.100
        37.600    24949267.445
  -4601780.289 6  -4188193.076 5  24899812.969    24899814.156          36.100
        34.500    24899813.633
 -29761563.945 8 -22997185.401 8  20221006.727    20221001.879          52.500
        52.700    20221002.172
  -7114040.592 6  -5502744.142 6  23999498.688    23999492.957          39.900
        39.200    23999493.371
 -35796907.643 5                  25970751.031                          33.100

  -8876872.602 6  -6880524.915 7  23877165.391    23877166.227          41.100
        42.300    23877165.938
 -21288859.231 7 -16604580.718 7  21852782.727    21852778.992          45.800
        47.500    21852778.879
 -10767906.905 6  -9188678.677 6  23820886.703    23820886.250          41.600
        41.800    23820886.078
 -21947491.542 8 -16219175.91946  21636737.227    21636727.980          51.700
        39.800
 -23228866.456 7 -11716823.48346  21480822.641    21480815.621          46.800
        36.500
 16  1  1  0  6  0.0000000  0 11G32G06G07G03G31G11G01G26G09G23G16
 -23857365.247 7 -13772539.38846  21556065.250    21556059.402          47.300
        38.500
  -5487264.083 6  -4259494.653 6  24941581.219    24941583.402          37.500
        37.300    24941583.113
  -4690730.641 6  -4257504.772 5  24882886.070    24882887.785          37.800
        35.000    24882887.320
 -29755896.350 8 -22992769.089 8  20222085.305    20222080.457          52.000
        52.700    20222080.750
  -7015768.511 6  -5426168.545 6  24018198.141    24018193.469          39.600
        39.700    24018194.176
 -35727297.737 5                  25983996.688                          35.400

  -8787382.958 6  -6810792.923 7  23894194.977    23894195.578          39.700
        42.100    23894195.406
 -21281514.377 7 -16598857.414 7  21854180.047    21854176.957          46.800
        47.300    21854176.785
 -10841330.280 6  -9245891.447 6  23806914.383    23806913.578          41.600
        41.500    23806913.758
 -21995000.443 8 -16256195.77846  21627696.477    21627687.465          50.300
        39.600
 -23285714.319 7 -11761120.42846  21470004.695    21469998.027          46.700
        36.400
 16  1  1  0  6 30.0000000  0 11G32G06G07G03G31G11G01G26G09G23G16
 -23788111.495 7 -13718575.44746  21569244.391    21569238.484          46.800
        38.800
  -5527161.628 6  -4290583.626 6  24933988.516    24933990.816          37.100
        38.900    24933991.230
  -4779533.750 6  -4326701.729 5  24865986.984    24865988.230          37.200
        35.200    24865988.117
 -29749676.146 8 -22987922.175 8  20223268.742    20223263.719          51.700
        53.200    20223263.895
  -6917495.028 6  -5349591.863 6  24036899.867    24036894.137          38.100
        38.400    24036894.785
 -35657932.935 5                  25997195.688                          34.400

  -8697848.695 6  -6741026.174 7  23911233.109    23911234.355          40.500
        42.000    23911233.832
 -21273581.949 7 -16592676.264 7  21855688.977    21855686.063          46.200
        47.500    21855686.066
 -10914742.713 6  -9303095.697 7  23792944.563    23792943.348          41.800
        42.100    23792943.996
 -22042409.152 8 -16293137.56646  21618674.930    21618665.977          50.300
        38.900
 -23342036.413 7 -11805007.67746  21459286.750    21459279.906          46.300
        36.500
 16  1  1  0  7  0.0000000  0 11G32G06G07G03G31G11G01G26G09G23G16
 -23718501.468 7 -13664333.88846  21582490.406    21582484.559          47.000
        38.600
  -5566578.371 6  -4321297.954 6  24926489.219    24926490.406          37.900
        38.000    24926490.586
  -4868192.993 6  -4395786.580 5  24849116.156    24849117.051          37.900
        35.000    24849116.820
 -29742906.723 8 -22982647.291 8  20224556.883    20224552.152          50.300
        52.900    20224552.445
  -6819226.192 6  -5273018.769 6  24055599.750    24055594.488          38.700
        39.000    24055594.844
 -35588819.236 5                  26010348.383                          34.000

  -8608276.704 6  -6671230.016 6  23928277.836    23928279.141          40.300
        41.700    23928279.203
 -21265065.907 7 -16586040.352 7  21857309.828    21857306.797          44.700
        47.400    21857306.625
 -10988147.862 7  -9360294.293 7  23778975.734    23778974.754          42.600
        42.000    23778974.699
 -22089720.816 8 -16330003.73546  21609671.570    21609662.734          50.600
        39.200
 -23397834.690 7 -11848486.76246  21448668.398    21448661.848          46.300
        36.500
 16  1  1  0  7 30.0000000  0 11G32G06G07G03G31G11G01G26G09G23G16
 -23648534.684 8 -13609814.31046  21595805.039    21595799.016          48.300
        39.000
  -5605511.588 6  -4351635.505 6  24919080.180    24919081.836          37.000
        38.900    24919082.074
  -4956705.499 6  -4464757.083 5  24832271.766    24832272.953          37.600
        35.100    24832272.664
 -29735585.953 8 -22976942.788 8  20225949.992    20225945.379          52.000
        52.900    20225945.730
  -6720961.634 6  -5196449.045 6  24074299.531    24074293.801          40.200
        39.600    24074294.449
 -35519956.997 5                  26023453.109                          35.000

  -8518668.244 6  -6601405.460 6  23945329.266    23945331.215          39.700
        41.700    23945330.867
 -21255964.636 7 -16578948.428 7  21859042.195    21859038.695          47.700
        47.600    21859038.465
 -11061543.937 7  -9417485.822 7  23765009.000    23765007.961          42.100
        42.000    23765008.551
 -22136933.270 8 -16366792.60846  21600687.359    21600678.523          50.700
        39.600
 -23453104.511 7 -11891554.06246  21438151.180    21438144.453          47.300
        37.200
 16  1  1  0  8  0.0000000  0 11G32G06G07G03G31G11G01G26G09G23G16
 -23578212.122 7 -13555017.52246  21609186.586    21609180.914          47.300
        38.600
  -5643960.206 6  -4381595.452 6  24911763.102    24911765.344          37.600
        38.900    24911766.051
  -5045069.612 6  -4533611.954 6  24815456.727    24815457.621          38.400
        36.100    24815457.918
 -29727713.097 8 -22970808.087 8  20227448.125    20227443.277          51.500
        52.900    20227443.629
  -6622702.589 6  -5119883.623 6  24092996.828    24092991.980          38.400
        38.800    24092992.332
 -35451347.337 5                  26036508.688                          35.200

  -8429026.078 6  -6531554.638 6  23962388.055    23962390.004          39.400
        41.000    23962389.715
 -21246277.915 7 -16571400.299 7  21860885.313    21860881.871          46.500
        47.800    21860881.934
 -11134930.361 6  -9474669.824 7  23751043.664    23751043.035          41.600
        42.100    23751043.156
 -22184045.506 8 -16403503.37946  21591721.875    21591713.215          50.100
        38.900
 -23507843.022 7 -11934207.35746  21427734.609    21427727.941          47.000
        36.900
 16  1  1  0  8 30.0000000  0 11G32G06G07G03G31G11G01G26G09G23G16
 -23507535.315 7 -13499944.72946  21622636.102    21622630.547          47.600
        38.300
  -5681923.412 6  -4411177.159 6  24904539.055    24904542.059          37.100
        39.400    24904541.945
  -5133285.230 6  -4602351.116 5  24798669.711    24798670.488          37.400
        35.800    24798670.434
 -29719287.840 8 -22964242.947 8  20229051.438    20229046.355          51.400
        53.000    20229046.590
  -6524450.853 6  -5043323.905 6  24111693.648    24111688.801          38.900
        39.600    24111689.035
 -35382991.994 6                  26049518.313                          36.900

  -8339353.191 6  -6461679.885 6  23979452.570    23979453.758          39.400
        41.100    23979453.586
 -21236005.915 7 -16563396.115 7  21862839.805    21862836.539          47.300
        47.900    21862836.426
 -11208307.052 7  -9531846.242 6  23737080.305    23737079.734          42.300
        41.600    23737079.680
 -22231056.857 8 -16440135.54746  21582776.125    21582766.879          50.300
        39.200
 -23562047.466 7 -11976444.49046  21417419.742    21417413.133          46.600
        37.300
 16  1  1  0  9  0.0000000  0 11G32G06G07G03G31G11G01G26G09G23G16
 -23436505.216 7 -13444596.63546  21636152.602    21636147.105          47.000
        38.400
  -5719400.318 6  -4440379.958 6  24897406.891    24897409.719          36.900
        39.000    24897410.016
  -5221351.099 6  -4670973.591 6  24781911.156    24781911.934          38.000
        36.100    24781911.996
 -29710309.757 8 -22957247.027 8  20230759.797    20230755.184          51.600
        53.000    20230755.477
  -6426208.480 6  -4966771.450 6  24130388.648    24130382.977          38.900
        38.600    24130383.566
 -35314893.126 5                  26062476.172                          35.000

  -8249652.554 6  -6391783.507 6  23996522.172    23996523.242          39.400
        40.400    23996523.305
 -21225148.736 7 -16554935.936 7  21864905.820    21864902.555          46.300
        47.500    21864902.441
 -11281673.824 7  -9589014.946 6  23723119.125    23723118.438          42.500
        41.600    23723117.914
 -22277966.883 8 -16476688.75946  21573849.492    21573840.480          49.900
        39.000
 -23615715.801 7 -12018263.86246  21407206.813    21407200.027          47.500
        36.600
 16  1  1  0  9 30.0000000  0 11G32G06G07G03G31G11G01G26G09G23G16
 -23365122.935 7 -13388974.12646  21649736.242    21649730.453          47.600
        38.100
  -5756389.981 6  -4469203.036 6  24890367.742    24890370.512          36.200
        39.400    24890370.984
  -5309266.222 6  -4739478.587 6  24765180.484    24765181.789          38.100
        36.800    24765181.910
 -29700778.328 8 -22949819.926 8  20232573.641    20232569.086          51.400
        53.200    20232569.559
  -6327976.878 6  -4890227.398 6  24149082.039    24149076.367          38.300
        39.900    24149076.781
 -35247052.462 5                  26075385.641                          35.300

  -8159926.992 6  -6321867.708 6  24013596.328    24013598.160          39.400
        39.500    24013597.461
 -21213706.396 7 -16546019.798 7  21867083.094    21867079.945          46.700
        47.500    21867079.598
 -11355030.258 6  -9646175.580 7  23709159.844    23709158.805          40.900
        42.200    23709158.457
 -22324774.520 8 -16513162.18646  21564942.117    21564933.105          48.900
        39.400
 -23668845.498 7 -12059663.52646  21397096.602    21397089.699          47.600
        36.700
 16  1  1  0 10  0.0000000  0 11G32G06G07G03G31G11G01G26G09G23G16
 -23293389.744 8 -13333078.15846  21663386.508    21663380.953          48.100
        38.300
  -5792891.554 6  -4497645.781 6  24883422.078    24883424.379          36.600
        38.600    24883424.793
  -5397029.525 6  -4807865.284 6  24748479.641    24748480.945          36.900
        37.300    24748480.773
 -29690693.103 8 -22941961.301 8  20234492.828    20234488.039          51.200
        52.500    20234488.332
  -6229757.767 6  -4813693.085 6  24167772.422    24167766.633          40.500
        40.200    24167767.223
 -35179471.753 6                  26088248.750                          36.100

  -8070179.331 6  -6251934.689 6  24030675.398    24030676.352          39.200
        39.600    24030676.473
 -21201678.909 7 -16536647.698 7  21869372.063    21869368.914          46.200
        47.500    21869368.801
 -11428376.046 6  -9703327.931 7  23695202.273    23695201.586          41.800
        42.500    23695201.238
 -22371479.227 8 -16549555.40946  21556054.641    21556045.277          49.400
        39.300
 -23721433.945 7 -12100641.43846  21387089.047    21387082.613          47.800
        36.700
 16  1  1  0 10 30.0000000  0 11G32G06G07G03G31G11G01G26G09G23G16
 -23221307.543 7 -13276910.20946  21677103.273    21677097.660          47.600
        38.600
  -5828904.734 6  -4525707.970 6  24876569.953    24876571.199          37.400
        38.700    24876571.203
  -5484640.711 6  -4876133.436 6  24731808.445    24731807.992          36.200
        36.800    24731808.348
 -29680054.364 8 -22933671.362 8  20236517.320    20236512.648          50.700
        52.500    20236513.000
  -6131553.149 6  -4737170.033 6  24186460.109    24186454.145          39.800
        39.200    24186454.441
 -35112153.372 5                  26101059.086                          35.200

  -7980413.075 6  -6181987.159 6  24047757.602    24047758.613          39.900
        39.200    24047758.383
 -21189067.130 7 -16526820.297 7  21871772.445    21871768.828          47.600
        47.600    21871768.891
 -11501711.593 6  -9760472.299 7  23681246.078    23681245.566          40.400
        42.300    23681245.922
 -22418080.825 8 -16585868.27846  21547186.492    21547177.656          49.600
        39.300
 -23773478.895 7 -12141195.84346  21377185.266    21377178.422          46.600
        37.300
 16  1  1  0 11  0.0000000  0 11G32G06G07G03G31G11G01G26G09G23G16
 -23148876.968 7 -13220470.79646  21690886.430    21690881.289          47.700
        38.200
  -5864428.298 6  -4553388.635 6  24869809.477    24869811.543          38.100
        38.800    24869811.137
  -5572098.517 6  -4944282.074 6  24715164.898    24715165.383          37.500
        37.100    24715165.211
 -29668861.201 8 -22924949.408 8  20238647.211    20238642.832          51.800
        52.700    20238643.188
  -6033364.175 6  -4660659.200 6  24205145.234    24205139.211          41.500
        40.700    24205139.918
 -35045098.673 6                  26113820.250                          36.000

  -7890630.713 6  -6112027.071 6  24064842.438    24064844.035          40.000
        39.500    24064844.039
 -21175870.676 8 -16516537.300 8  21874282.648    21874279.793          48.200
        48.000    21874279.738
 -11575036.008 6  -9817607.998 7  23667293.727    23667292.395          41.400
        43.100    23667292.340
 -22464578.147 8 -16622099.89346  21538338.219    21538329.090          50.200
        39.700
 -23824977.455 7 -12181324.49646  21367385.508    21367378.664          47.100
        36.500
 16  1  1  0 11 30.0000000  0 11G32G06G07G03G31G11G01G26G09G23G16
 -23076099.313 7 -13163760.94646  21704735.813    21704729.965          47.000
        38.000
  -5899461.423 6  -4580687.139 6  24863143.313    24863144.441          37.800
        38.700    24863144.914
  -5659402.318 6  -5012310.716 6  24698551.547    24698552.441          37.500
        38.100    24698552.621
 -29657113.241 8 -22915795.146 8  20240883.000    20240878.504          50.400
        52.400    20240878.738
  -5935192.437 6  -4584161.813 6  24223826.469    24223820.621          39.900
        39.500    24223821.152
 -34978308.938 6                  26126530.047                          36.100

  -7800834.929 6  -6042056.516 6  24081929.922    24081931.578          40.600
        39.800    24081931.348
 -21162089.730 7 -16505798.844 7  21876905.656    21876901.980          47.200
        47.100    21876901.867
 -11648349.028 6  -9874734.820 7  23653342.273    23653341.000          40.500
        42.700    23653341.648
 -22510970.365 8 -16658249.61346  21529510.031    21529501.488          49.400
        39.300
 -23875927.351 7 -12221025.62046  21357690.242    21357683.105          46.700
        37.200
 16  1  1  0 12  0.0000000  0 11G32G06G07G03G31G11G01G26G09G23G16
 -23002976.232 7 -13106781.94746  21718650.508    21718644.543          47.900
        37.600
  -5934003.637 6  -4607603.095 6  24856569.477    24856571.367          37.900
        38.300    24856571.137
  -5746550.848 6  -5080218.354 6  24681966.734    24681967.629          37.400
        37.900    24681967.398
 -29644810.562 8 -22906208.637 8  20243223.953    20243219.105          49.200
        52.900    20243219.574
  -5837040.144 6  -4507679.465 6  24242503.891    24242498.395          41.000
        39.600    24242498.574
 -34911786.416 5                  26139188.578                          35.000

  -7711029.050 6  -5972078.088 6  24099019.617    24099021.391          39.800
        39.000    24099021.277
 -21147724.862 7 -16494605.393 8  21879638.906    21879635.699          44.100
        48.000    21879635.703
 -11721650.719 6  -9931852.790 7  23639393.000    23639392.371          39.900
        42.800    23639391.906
 -22557256.956 8 -16694317.01146  21520701.891    21520692.938          50.600
        39.300
 -23926326.497 8 -12260297.59146  21348099.445    21348092.543          48.100
        37.600
 16  1  1  0 12 30.0000000  0 11G32G06G07G03G31G11G01G26G09G23G16
 -22929508.571 7 -13049534.44346  21732631.109    21732625.789          47.700
        38.000
  -5968053.890 6  -4634135.728 6  24850089.750    24850091.113          36.000
        37.900    24850092.055
  -5833543.017 6  -5148004.175 6  24665412.977    24665413.813          37.800
        38.000    24665413.699
 -29631952.472 8 -22896189.348 8  20245670.719    20245666.223          52.100
        52.800    20245666.516
  -5738908.231 6  -4431213.091 6  24261177.922    24261173.016          41.300
        40.200    24261173.191
 -34845532.574 5                  26151795.867                          35.700

  -7621215.575 6  -5902093.741 6  24116110.430    24116112.262          39.000
        38.900    24116112.324
 -21132775.927 7 -16482956.824 7  21882484.008    21882480.039          46.500
        47.600    21882479.926
 -11794940.341 6  -9988961.384 7  23625446.148    23625444.992          38.100
        42.800    23625444.938
 -22603436.870 8 -16730301.29546  21511914.375    21511905.070          50.800
        39.600
 -23976172.037 7 -12299138.18446  21338614.039    21338606.902          47.700
        36.900
 16  1  1  0 13  0.0000000  0 11G32G06G07G03G31G11G01G26G09G23G16
 -22855697.534 7 -12992019.38046  21746676.703    21746671.090          47.400
        37.600
  -6001611.329 6  -4660284.364 6  24843704.344    24843705.707          37.400
        39.200    24843706.355
  -5920378.168 6  -5215667.635 6  24648888.703    24648889.012          38.600
        38.600    24648889.191
 -29618538.620 8 -22885736.988 8  20248223.516    20248218.785          50.400
        53.300    20248219.195
  -5640798.292 6  -4354763.841 6  24279848.219    24279841.785          41.100
        39.700    24279841.848
 -34779549.256 5                  26164352.414                          33.500

  -7531397.238 6  -5832105.615 6  24133202.836    24133204.141          39.200
        39.200    24133204.145
 -21117243.170 7 -16470853.332 7  21885439.469    21885435.441          44.100
        47.900    21885435.680
 -11868217.519 6 -10046060.277 7  23611502.414    23611500.672          40.100
        42.400    23611500.500
 -22649509.309 8 -16766201.82446  21503146.961    21503138.242          48.700
        38.900
 -24025461.627 7 -12337545.56946  21329234.516    21329227.203          46.200
        37.300
 16  1  1  0 13 30.0000000  0 11G32G06G07G03G31G11G01G26G09G23G16
 -22781545.453 7 -12934238.56746  21760787.305    21760781.750          47.600
        37.700
  -6034676.182 6  -4686049.159 6  24837412.523    24837413.359          36.100
        38.900    24837413.773
  -6007056.177 6  -5283208.672 6  24632393.844    24632394.855          39.000
        38.900    24632395.035
 -29604569.701 8 -22874852.111 8  20250881.664    20250877.227          52.100
        52.300    20250877.582
  -5542712.894 6  -4278333.633 6  24298512.359    24298506.805          41.300
        38.900    24298507.043
 -34713838.651 5                  26176858.953                          34.300

  -7441577.896 6  -5762116.707 6  24150294.484    24150296.609          39.400
        39.200    24150296.730
 -21101127.809 7 -16458295.845 7  21888506.305    21888502.570          46.700
        47.400    21888502.633
 -11941482.911 6 -10103149.977 7  23597559.375    23597558.336          38.800
        42.500    23597558.164
 -22695474.508 8 -16802018.79046  21494400.164    21494390.742          51.600
        39.000
 -24074193.689 7 -12375518.51246  21319960.945    21319953.984          47.300
        37.500
 16  1  1  0 14  0.0000000  0 11G32G06G07G03G31G11G01G26G09G23G16
 -22707052.424 7 -12876192.08746  21774962.852    21774957.414          47.200
        37.300
  -6067246.723 6  -4711428.769 6  24831215.172    24831216.125          36.500
        38.300    24831216.480
  -6093574.956 6  -5350625.632 6  24615930.086    24615930.805          40.300
        37.600    24615930.457
 -29590044.377 8 -22863533.675 8  20253645.469    20253640.973          50.800
        53.000    20253641.563
  -5444652.352 6  -4201922.843 6  24317173.375    24317167.352          41.500
        39.500    24317167.531
 -36223821.323 5                  26189311.422                          33.600

  -7351759.285 6  -5692128.374 6  24167386.820    24167388.652          39.700
        39.200    24167389.008
 -21084429.058 7 -16445283.778 7  21891683.250    21891679.926          45.200
        47.600    21891679.930
 -12014735.044 6 -10160229.327 7  23583620.234    23583618.961          39.200
        42.500    23583619.082
 -22741330.423 7 -16837750.59646  21485673.992    21485664.453          47.600
        39.400
 -24122364.432 7 -12413054.07846  21310794.273    21310787.020          45.900
        37.500
 16  1  1  0 14 30.0000000  0 11G32G06G07G03G31G11G01G26G09G23G16
 -22632220.555 7 -12817881.57446  21789203.141    21789197.234          46.100
        37.500
  -6099322.835 6  -4736423.104 6  24825111.164    24825112.059          36.900
        38.400    24825112.414
  -6179934.286 6  -5417918.352 6  24599495.844    24599496.914          40.300
        37.800    24599496.859
 -29574963.152 8 -22851782.065 8  20256515.781    20256510.992          49.300
        53.000    20256511.520
  -5346618.836 6  -4125533.091 6  24335828.055    24335822.617          41.000
        38.800    24335822.504
 -36158659.747 5                  26201711.055                          30.100

  -7261944.953 6  -5622143.367 6  24184478.367    24184479.965          39.200
        39.200    24184480.203
 -21067147.952 7 -16431817.924 7  21894972.211    21894968.652          43.900
        47.800    21894968.832
 -12087974.236 6 -10217298.604 7  23569683.055    23569681.898          39.600
        42.400    23569681.844
 -22787076.848 8 -16873397.09146  21476968.477    21476959.348          49.500
        40.000
 -24169973.114 7 -12450151.66746  21301734.500    21301727.070          46.200
        38.000
 16  1  1  0 15  0.0000000  0 11G32G06G07G03G31G11G01G26G09G23G16
 -22557045.251 7 -12759303.43546  21803508.430    21803502.934          46.200
        38.000
  -6130898.127 6  -4761027.177 6  24819101.297    24819102.953          36.400
        38.000    24819103.074
  -6266127.621 6  -5485081.731 6  24583094.188    24583094.086          40.700
        37.800    24583093.855
 -29559319.922 8 -22839592.521 8  20259492.469    20259487.445          50.300
        52.500    20259487.973
  -5248608.170 7  -4049161.145 6  24354478.844    24354473.820          42.000
        39.000    24354474.465
 -36093769.67214                  26214059.656                          28.300

  -7172131.776 6  -5552159.249 6  24201569.164    24201571.230          38.900
        39.500    24201571.293
 -21049278.991 7 -16417893.996 7  21898372.328    21898369.121          46.700
        47.800    21898368.715
 -12161194.355 6 -10274353.016 7  23555749.336    23555748.297          40.500
        42.300    23555748.125
 -22832707.194 8 -16908953.12146  21468285.234    21468275.930          48.800
        40.100
 -24217010.916 7 -12486804.41546  21292783.281    21292776.203          46.700
        37.600
 16  1  1  0 15 30.0000000  0 11G32G06G07G03G31G11G01G26G09G23G16
 -22481545.140 7 -12700472.19346  21817875.586    21817870.383          46.900
        37.700
  -6161989.309 5  -4785254.006 6  24813185.672    24813186.801          35.800
        39.700    24813187.391
  -6352171.199 6  -5552128.408 6  24566720.719    24566720.266          41.300
        37.300    24566720.035
 -29543131.997 8 -22826978.550 8  20262572.539    20262568.043          51.200
        52.500    20262568.457
  -5150639.265 6  -3972821.728 6  24373122.117    24373115.742          41.100
        37.500    24373116.332
 -36029169.940 4                  26226351.703                          29.900

  -7082340.044 6  -5482191.839 6  24218655.961    24218658.203          39.700
        39.900    24218657.738
 -21030839.991 7 -16403525.878 7  21901880.766    21901877.559          47.300
        47.600    21901877.855
 -12234412.403 6 -10331405.816 7  23541816.172    23541814.781          39.600
        42.900    23541814.961
 -22878238.184 8 -16944431.73846  21459620.984    21459611.914          50.300
        39.700
 -24263492.754 7 -12523023.93246  21283937.820    21283931.152          47.400
        37.100
 16  1  1  0 16  0.0000000  0 11G32G06G07G03G31G11G01G26G09G23G16
 -22405698.954 7 -12641371.28246  21832308.578    21832302.789          45.700
        37.200
  -6192572.910 6  -4809085.330 6  24807365.063    24807367.188          36.100
        39.200    24807367.953
  -6438041.554 6  -5619040.091 6  24550379.508    24550379.172          41.100
        36.800    24550379.176
 -29526376.402 8 -22813922.235 8  20265761.102    20265756.430          49.800
        52.400    20265756.781
  -5052690.695 6  -3896498.168 6  24391760.977    24391755.656          41.100
        39.400    24391756.012
 -35964839.972 4                  26238595.211                          28.900

  -6992549.815 6  -5412225.606 6  24235742.797    24235744.980          38.500
        40.300    24235744.984
 -21011808.594 7 -16388696.155 7  21905502.789    21905498.879          47.000
        47.400    21905498.648
 -12307605.256 6 -10388438.985 7  23527888.516    23527886.598          40.000
        42.400    23527886.602
 -22923646.092 8 -16979814.44246  21450980.117    21450971.281          48.700
        39.200
 -24309394.506 7 -12558791.43546  21275203.344    21275196.383          46.200
        36.800
 16  1  1  0 16 30.0000000  0 11G32G06G07G03G31G11G01G26G09G23G16
 -22329524.792 7 -12582014.81346  21846803.961    21846798.641          46.600
        36.800
  -6222665.462 6  -4832534.016 6  24801638.297    24801640.480          37.000
        38.800    24801641.012
  -6523754.952 6  -5685829.463 6  24534068.438    24534067.984          40.900
        36.900    24534067.520
 -29509069.909 8 -22800436.644 8  20269054.523    20269049.852          50.600
        52.700    20269050.262
  -4954781.020 6  -3820204.953 6  24410392.516    24410386.902          40.200
        37.800    24410386.848
 -35900797.715 4                  26250784.031                          29.600

  -6902780.727 6  -5342275.840 6  24252824.836    24252828.543          38.900
        40.500    24252828.254
 -20992202.104 8 -16373418.312 7  21909233.602    21909229.809          48.200
        47.300    21909229.520
 -12380789.421 6 -10445465.397 7  23513961.563    23513960.113          39.600
        43.000    23513960.234
 -22968947.007 8 -17015113.78546  21442359.516    21442350.387          49.400
        39.900
 -24354729.991 7 -12594117.69946  21266575.984    21266568.965          46.900
        36.900
 16  1  1  0 17  0.0000000  0 11G32G06G07G03G31G11G01G26G09G23G16
 -22253023.183 7 -12522403.18746  21861362.141    21861356.176          46.100
        37.000
  -6252265.261 6  -4855598.731 6  24796005.805    24796007.695          36.900
        39.900    24796008.520
  -6609309.398 6  -5752494.970 6  24517787.586    24517787.484          41.000
        37.000    24517787.723
 -29491211.516 8 -22786521.001 8  20272452.813    20272448.375          50.500
        52.300    20272448.848
  -4856910.724 7  -3743942.372 6  24429017.078    24429010.762          42.000
        38.700    24429011.293
 -35837044.261 5                  26262916.148                          34.300

  -6813034.753 6  -5272344.098 6  24269903.773    24269906.191          38.500
        40.000    24269906.078
 -20972020.097 7 -16357692.015 7  21913074.273    21913070.773          47.100
        47.600    21913070.543
 -12453963.641 6 -10502484.065 7  23500037.047    23500035.246          39.400
        43.400    23500035.719
 -23014139.181 8 -17050328.38746  21433759.773    21433750.586          49.200
        40.100
 -24399496.341 8 -12629000.47346  21258057.273    21258050.430          48.000
        37.400
 16  1  1  0 17 30.0000000  0 11G32G06G07G03G31G11G01G26G09G23G16
 -22176186.556 7 -12462530.50946  21875983.438    21875977.590          45.700
        36.900
  -6281362.969 6  -4878272.204 6  24790469.523    24790470.711          36.600
        39.400    24790471.301
  -6694694.901 6  -5819028.791 6  24501539.617    24501539.340          41.000
        37.200    24501539.168
 -29472792.146 8 -22772168.240 8  20275958.047    20275953.492          49.100
        52.700    20275953.551
  -4759071.894 6  -3667704.309 6  24447634.359    24447629.395          40.500
        37.900    24447629.980
 -35773572.797 4                  26274993.766                          28.900

  -6723305.642 6  -5202425.504 6  24286978.563    24286981.391          39.400
        40.500    24286980.809
 -20951254.085 7 -16341510.651 7  21917025.719    21917022.219          44.100
        47.400    21917022.223
 -12527118.487 6 -10559487.653 7  23486116.102    23486114.477          40.200
        42.900    23486114.773
 -23059212.873 8 -17085450.66446  21425182.367    21425173.004          50.600
        40.000
 -24443682.725 7 -12663431.32946  21249648.695    21249641.559          47.800
        37.700
 16  1  1  0 18  0.0000000  0 11G32G06G07G03G31G11G01G26G09G23G16
 -22099016.327 7 -12402397.88446  21890668.641    21890663.027          45.600
        37.000
  -6309957.881 6  -4900553.898 6  24785026.078    24785029.258          36.000
        39.200    24785029.438
  -6779910.672 6  -5885430.354 6  24485322.766    24485322.195          40.900
        37.100    24485322.492
 -29453811.795 8 -22757378.346 8  20279569.781    20279564.934          51.000
        52.600    20279565.227
  -4661266.274 6  -3591492.134 6  24466246.867    24466241.078          40.800
        38.500    24466241.609
 -35710382.784 5                  26287018.367                          30.500

  -6633596.234 6  -5132522.263 6  24304050.359    24304053.188          38.500
        40.800    24304052.898
 -20929904.651 8 -16324874.686 7  21921088.516    21921084.781          48.000
        47.200    21921084.668
 -12600253.680 6 -10616475.919 7  23472198.828    23472196.969          39.800
        44.000    23472197.031
 -23104167.145 8 -17120479.89246  21416628.023    21416618.367          50.800
        40.600
 -24487286.590 8 -12697408.26646  21241351.227    21241344.148          48.400
        37.800
 16  1  1  0 18 30.0000000  0 11G32G06G07G03G31G11G01G26G09G23G16
 -22021525.715 7 -12342015.58346  21905414.422    21905409.281          46.100
        36.800
  -6338061.597 6  -4922452.822 6  24779678.500    24779681.387          37.100
        40.000    24779681.977
  -6864967.949 6  -5951708.384 6  24469136.375    24469136.215          39.800
        36.200    24469136.512
 -29434282.350 8 -22742160.592 8  20283286.055    20283280.914          50.300
        52.600    20283281.383
  -4563507.703 6  -3515316.669 6  24484849.680    24484843.188          39.800
        36.500    24484843.543
 -35647489.424 4                  26298987.258                          28.900

  -6543921.243 6  -5062645.821 6  24321114.367    24321117.488          38.700
        40.900    24321117.258
 -20907984.202 8 -16307793.786 7  21925259.633    21925256.074          48.800
        47.400    21925256.020
 -12673380.613 6 -10673457.762 7  23458283.250    23458281.098          39.900
        43.400    23458281.043
 -23149013.120 8 -17155424.73646  21408093.734    21408084.313          48.000
        40.100
 -24530317.951 7 -12730939.10146  21233163.055    21233155.684          45.800
        37.900
 16  1  1  0 19  0.0000000  0 11G32G06G07G03G31G11G01G26G09G23G16
 -21943705.113 7 -12281376.16846  21920222.969    21920218.121          45.800
        36.600
  -6365662.425 6  -4943959.891 6  24774427.250    24774429.492          36.900
        39.400    24774429.730
  -6949854.756 6  -6017853.565 6  24452982.625    24452982.230          39.900
        37.100    24452982.469
 -29414192.647 8 -22726506.256 8  20287108.883    20287104.152          50.000
        52.800    20287104.504
  -4465786.019 6  -3439169.898 6  24503445.805    24503438.785          41.100
        37.700    24503439.727
 -35584882.800 5                  26310902.680                          31.600

  -6454272.252 6  -4992789.639 6  24338174.859    24338177.336          37.900
        41.000    24338176.930
 -20885482.201 7 -16290259.726 7  21929541.516    21929538.074          47.900
        47.900    21929537.785
 -12746487.774 6 -10730424.193 7  23444370.609    23444369.102          40.200
        43.200    23444368.930
 -23193738.627 8 -17190275.70846  21399582.781    21399573.594          51.500
        40.300
 -24572763.427 7 -12764013.40146  21225085.484    21225078.172          47.200
        37.500
 16  1  1  0 19 30.0000000  0 11G32G06G07G03G31G11G01G26G09G23G16
 -21865557.780 7 -12220482.17346  21935094.086    21935088.648          46.700
        36.600
  -6392761.768 6  -4965076.204 6  24769270.453    24769271.934          37.300
        38.700    24769271.703
  -7034572.285 6  -6083866.842 6  24436861.875    24436861.188          40.300
        37.100    24436861.191
 -29393544.623 8 -22710416.867 8  20291038.297    20291033.391          51.200
        52.100    20291033.684
  -4368104.795 6  -3363054.773 6  24522033.344    24522027.672          41.200
        37.700    24522027.910
 -35522566.353 5                  26322760.719                          32.000

  -6364653.963 6  -4922957.388 6  24355229.234    24355231.008          38.400
        40.400    24355230.777
 -20862401.102 8 -16272274.425 7  21933933.414    21933930.266          48.000
        47.800    21933930.152
 -12819576.665 6 -10787376.360 7  23430462.461    23430460.602          41.000
        43.800    23430460.898
 -23238344.578 8 -17225033.53346  21391094.672    21391085.074          51.800
        39.900
 -24614622.471 8 -12796630.74246  21217119.805    21217112.609          48.100
        37.500
 16  1  1  0 20  0.0000000  0 11G32G06G07G03G31G11G01G26G09G23G16
 -21787089.788 7 -12159338.31446  21950026.133    21950020.695          46.300
        36.400
  -6419363.981 6  -4985805.111 6  24764207.625    24764209.398          36.400
        39.400    24764209.813
  -7119124.303 6  -6149751.126 6  24420771.703    24420770.664          41.100
        36.800    24420770.434
 -29372343.000 8 -22693896.108 8  20295072.719    20295067.754          51.000
        52.700    20295068.105
  -4270469.631 6  -3286975.447 5  24540613.055    24540606.680          40.700
        35.900    24540607.094
 -35460546.227 5                  26334563.844                          31.300

  -6275073.851 6  -4853154.879 6  24372275.594    24372277.719          38.100
        40.500    24372277.605
 -20838746.252 7 -16253842.052 7  21938435.164    21938431.371          47.800
        47.600    21938431.316
 -12892651.541 6 -10844317.604 7  23416556.508    23416554.473          41.000
        43.700    23416554.418
 -23282835.125 8 -17259701.42446  21382628.195    21382618.891          49.500
        40.500
 -24655898.419 7 -12828793.70546  21209265.234    21209258.098          46.000
        38.300
 16  1  1  0 20 30.0000000  0 10G32G06G07G03G31G01G26G09G23G16
 -21708298.991 7 -12097942.90746  21965019.414    21965013.918          46.000
        36.600
  -6445464.924 6  -5006143.411 6  24759241.750    24759242.996          37.200
        38.800    24759242.824
  -7203506.585 7  -6215503.154 6  24404713.750    24404713.297          42.000
        37.400    24404713.184
 -29350584.193 8 -22676941.164 8  20299213.352    20299208.680          51.400
        52.700    20299208.973
  -4172878.820 6  -3210930.709 6  24559183.430    24559177.875          40.800
        36.900    24559178.172
  -6185530.983 6  -4783381.395 6  24389314.539    24389317.016          37.900
        40.100    24389316.961
 -20814514.620 7 -16234960.227 7  21943046.273    21943042.363          47.000
        47.300    21943042.070
 -12965708.329 7 -10901244.736 7  23402654.414    23402651.969          42.300
        43.600    23402651.738
 -23327205.541 8 -17294275.71146  21374184.500    21374175.547          51.500
        40.100
 -24696584.973 7 -12860497.40946  21201522.922    21201515.434          47.300
        38.600
 16  1  1  0 21  0.0000000  0 10G32G06G07G03G31G01G26G09G23G16
 -21629188.328 7 -12036298.23445  21980073.602    21980068.461          46.800
        35.800
  -6471065.818 6  -5026092.094 6  24754369.273    24754371.105          36.700
        38.600    24754371.402
  -7287719.962 6  -6281123.565 6  24388687.484    24388687.207          41.100
        37.400    24388687.387
 -29328269.880 8 -22659553.365 8  20303459.469    20303454.738          51.900
        52.600    20303455.090
  -4075334.971 6  -3134922.572 6  24577745.469    24577740.031          40.900
        37.700    24577740.211
  -6096029.814 6  -4713640.421 6  24406345.906    24406349.320          37.500
        39.800    24406348.973
 -20789708.455 7 -16215630.720 7  21947766.211    21947763.121          46.700
        47.400    21947763.008
 -13038748.200 7 -10958158.696 7  23388755.391    23388752.828          42.600
        43.600    23388752.949
 -23371456.661 8 -17328757.04046  21365764.070    21365754.590          52.500
        39.900
 -24736681.794 8 -12891741.57446  21193892.625    21193884.961          48.600
        38.200
 16  1  1  0 21 30.0000000  0 10G32G06G07G03G31G01G26G09G23G16
 -21549758.382 7 -11974404.77446  21995189.227    21995183.086          46.500
        36.300
  -6496165.207 6  -5045649.967 6  24749592.641    24749594.355          36.800
        39.200    24749594.594
  -7371762.166 6  -6346610.586 6  24372694.672    24372694.160          40.800
        37.100    24372694.164
 -29305399.117 8 -22641731.967 8  20307811.570    20307807.074          50.900
        52.000    20307807.367
  -3977838.787 6  -3058951.565 6  24596297.547    24596293.520          39.000
        36.900    24596293.344
  -6006571.936 6  -4643933.179 6  24423369.438    24423372.852          37.000
        39.600    24423372.152
 -20764327.407 7 -16195853.235 7  21952596.477    21952592.684          44.200
        47.300    21952592.453
 -13111769.658 6 -11015058.314 7  23374859.430    23374856.867          41.700
        43.700    23374856.461
 -23415586.217 8 -17363143.64546  21357366.164    21357356.859          51.300
        39.700
 -24776186.552 8 -12922524.38646  21186375.117    21186367.688          48.600
        38.300
 16  1  1  0 22  0.0000000  0 10G32G06G07G03G31G01G26G09G23G16
 -21470010.824 7 -11912263.82046  22010364.563    22010358.539          47.200
        36.400
  -6520763.148 6  -5064817.108 6  24744911.984    24744913.582          37.300
        38.600    24744913.703
  -7455632.968 6  -6411964.051 6  24356734.875    24356734.012          41.100
        37.300    24356733.840
 -29281972.383 8 -22623477.356 8  20312269.367    20312264.813          51.600
        52.700    20312264.988
  -3880391.475 6  -2983018.637 6  24614842.055    24614836.324          40.100
        36.000    24614837.148
  -5917160.406 6  -4574262.063 6  24440383.930    24440387.461          36.600
        39.500    24440386.996
 -20738372.493 7 -16175628.568 7  21957535.570    21957531.895          47.300
        46.800    21957531.898
 -13184772.570 7 -11071943.467 7  23360967.219    23360964.832          42.600
        43.600    23360965.070
 -23459593.988 8 -17397435.35646  21348992.070    21348982.473          52.100
        40.300
 -24815097.241 7 -12952844.29946  21178970.516    21178962.852          47.800
        38.200
 16  1  1  0 22 30.0000000  0 10G32G06G07G03G31G01G26G09G23G16
 -21389947.719 7 -11849876.97245  22025599.461    22025594.258          46.400
        35.900
  -6544859.796 6  -5083593.605 6  24740326.859    24740328.164          37.900
        39.500    24740328.402
  -7539332.272 6  -6477183.887 6  24340806.492    24340806.098          40.300
        37.000    24340805.809
 -29257990.411 8 -22604790.091 8  20316833.438    20316828.473          51.100
        52.400    20316828.766
  -3782994.871 6  -2907125.190 6  24633376.188    24633371.398          40.700
        38.700    24633371.750
  -5827798.605 6  -4504629.682 6  24457389.555    24457391.973          37.300
        39.400    24457391.977
 -20711845.044 7 -16154957.758 7  21962583.313    21962579.578          46.600
        47.200    21962579.582
 -13257757.129 7 -11128814.336 7  23347078.156    23347076.238          43.000
        43.700    23347076.242
 -23503479.344 8 -17431631.67046  21340640.883    21340631.227          52.100
        40.200
 -24853412.365 7 -12982700.12246  21171678.992    21171671.914          47.000
        37.800
 16  1  1  0 23  0.0000000  0 10G32G06G07G03G31G01G26G09G23G16
 -21309569.691 7 -11787244.74245  22040894.922    22040889.957          46.800
        35.600
  -6568454.089 6  -5101978.663 6  24735836.219    24735838.402          37.600
        39.000    24735838.699
  -7622858.381 6  -6542268.763 6  24324912.352    24324910.492          40.700
        36.700    24324910.789
 -29233452.505 8 -22585669.627 8  20321502.273    20321497.953          50.600
        52.500    20321498.250
  -3685650.110 6  -2831272.192 6  24651900.641    24651895.320          39.800
        37.400    24651895.148
  -5738488.318 6  -4435037.489 6  24474385.234    24474387.711          37.000
        39.400    24474387.598
 -20684744.997 7 -16133840.774 7  21967739.883    21967736.617          46.200
        47.600    21967736.328
 -13330721.936 7 -11185669.807 7  23333192.789    23333191.105          43.500
        43.600    23333191.520
 -23547240.898 8 -17465731.51546  21332313.313    21332303.773          52.500
        40.300
 -24891129.089 7 -13012089.67546  21164501.867    21164494.555          47.600
        38.200
 16  1  1  0 23 30.0000000  0 10G32G06G07G03G31G01G26G09G23G16
 -21228879.098 7 -11724368.95445  22056249.945    22056244.922          47.900
        35.900
  -6591546.333 6  -5119972.526 6  24731442.156    24731443.402          38.200
        39.600    24731443.816
  -7706211.365 6  -6607218.752 6  24309050.313    24309048.922          40.900
        37.000    24309048.984
 -29208359.610 8 -22566116.712 8  20326277.516    20326272.668          50.600
        52.600    20326272.902
  -3588359.154 6  -2755461.092 5  24670414.047    24670408.668          40.900
        35.700    24670408.672
  -5649233.055 6  -4365488.158 6  24491369.508    24491372.805          37.300
        39.000    24491372.633
 -20657073.824 7 -16112278.744 7  21973005.719    21973002.629          45.700
        47.300    21973002.750
 -13403667.256 7 -11242510.094 7  23319312.047    23319310.012          43.100
        44.100    23319309.840
 -23590877.777 8 -17499734.21246  21324009.180    21323999.465          52.700
        39.500
 -24928245.961 7 -13041011.80646  21157438.930    21157431.090          47.200
        38.200
 16  1  1  0 24  0.0000000  0 10G32G06G07G03G31G01G26G09G23G16
 -21147877.304 7 -11661250.67845  22071664.336    22071658.898          47.200
        35.700
  -6614136.509 6  -5137575.136 6  24727144.039    24727144.934          38.600
        39.400    24727145.055
  -7789390.322 6  -6672033.132 6  24293222.180    24293220.145          41.300
        37.400    24293220.500
 -29182711.955 8 -22546131.505 8  20331158.406    20331153.617          51.000
        52.600    20331153.910
  -3491123.055 6  -2679692.723 6  24688918.422    24688912.633          41.300
        37.600    24688913.164
  -5560035.513 6  -4295983.798 6  24508344.188    24508346.547          36.500
        38.400    24508346.082
 -20628832.410 7 -16090272.371 7  21978379.977    21978376.301          46.900
        47.200    21978376.305
 -13476592.665 7 -11299334.879 7  23305434.844    23305432.457          43.700
        43.800    23305432.168
 -23634389.455 8 -17533639.36046  21315729.070    21315719.707          52.100
        40.200
 -24964761.419 7 -13069465.31146  21150490.094    21150482.605          47.500
        38.100
 16  1  1  0 24 30.0000000  0 10G32G06G07G03G31G01G26G09G23G16
 -21066565.887 7 -11597891.12445  22087137.086    22087132.121          46.900
        35.100
  -6636224.123 6  -5154786.155 6  24722940.766    24722941.543          38.400
        38.900    24722941.137
  -7872394.443 6  -6736711.281 6  24277426.125    24277424.559          41.300
        37.300    24277424.563
 -29156509.752 8 -22525714.193 8  20336144.383    20336139.477          50.600
        52.500    20336139.828
  -3393943.106 6  -2603968.123 6  24707410.313    24707405.230          40.400
        37.700    24707405.289
  -5470898.288 6  -4226526.437 6  24525305.938    24525309.059          36.500
        38.600    24525309.063
 -20600021.570 7 -16067822.285 7  21983862.414    21983859.148          45.900
        47.100    21983859.270
 -13549497.611 7 -11356143.715 7  23291561.133    23291558.980          43.000
        44.400    23291558.926
 -23677774.961 8 -17567446.18246  21307473.109    21307463.629          52.400
        40.500
 -25000674.228 7 -13097449.21746  21143656.102    21143648.438          47.300
        38.300
 16  1  1  0 25  0.0000000  0 10G32G06G07G03G31G01G26G09G23G16
 -20984946.029 8 -11534291.23945  22102668.836    22102663.813          48.400
        35.400
  -6657808.772 6  -5171605.242 6  24718832.688    24718834.227          37.500
        39.300    24718834.055
  -7955222.935 6  -6801252.574 6  24261664.195    24261662.512          41.700
        36.900    24261662.398
 -29129753.014 8 -22504864.769 8  20341236.063    20341231.156          51.200
        52.600    20341231.508
  -3296820.319 6  -2528288.055 6  24725892.297    24725886.918          39.600
        37.200    24725886.863
  -5381823.742 5  -4157117.903 6  24542256.813    24542259.172          35.800
        38.700    24542259.352
 -20570641.824 7 -16044928.902 7  21989453.133    21989449.340          45.700
        47.000    21989449.344
 -13622381.243 7 -11412935.926 7  23277691.797    23277689.703          43.200
        44.300    23277689.824
 -23721032.931 8 -17601153.63446  21299241.383    21299232.078          53.200
        40.500
 -25035981.635 8 -13124961.39446  21136936.938    21136929.156          48.000
        38.600
 16  1  1  0 25 30.0000000  0 10G32G06G07G03G31G01G26G09G23G16
 -20903019.698 8 -11470452.55445  22118259.156    22118253.660          48.200
        35.800
  -6678890.664 6  -5188032.574 6  24714820.672    24714822.797          37.800
        40.300    24714823.445
  -8037875.724 6  -6865656.961 6  24245935.500    24245933.816          40.500
        37.300    24245933.996
 -29102442.375 8 -22483583.725 8  20346432.992    20346428.320          48.800
        52.900    20346428.555
  -3199756.544 6  -2452653.943 6  24744363.172    24744357.559          41.300
        37.000    24744357.973
  -5292815.136 5  -4087760.752 6  24559194.352    24559197.531          35.700
        39.100    24559197.594
 -20540694.524 7 -16021593.271 7  21995151.844    21995148.109          43.800
        47.600    21995147.938
 -13695243.585 7 -11469711.547 7  23263826.297    23263823.617          42.800
        44.200    23263823.914
 -23764162.486 8 -17634761.02246  21291034.125    21291024.527          52.200
        40.100
 -25070682.516 7 -13152000.93846  21130333.469    21130326.039          47.000
        38.900
 16  1  1  0 26  0.0000000  0 10G32G06G07G03G31G01G26G09G23G16
 -20820788.442 8 -11406376.25945  22133907.742    22133901.895          48.200
        35.900
  -6699469.635 6  -5204068.018 6  24710904.883    24710906.188          39.200
        40.500    24710906.191
  -8120351.395 6  -6929923.337 6  24230240.484    24230238.684          40.500
        38.300    24230238.863
 -29074578.206 8 -22461871.370 8  20351735.141    20351730.176          51.400
        53.200    20351730.586
  -3102752.608 6  -2377066.429 6  24762822.609    24762816.527          41.200
        36.800    24762816.414
  -5203875.029 5  -4018457.003 6  24576118.586    24576122.586          35.700
        39.200    24576122.590
 -20510180.533 7 -15997816.070 7  22000958.063    22000955.090          47.000
        47.200    22000955.270
 -13768084.076 7 -11526470.141 7  23249965.406    23249962.844          43.600
        44.700    23249963.199
 -23807163.213 8 -17668268.01246  21282851.352    21282842.047          52.800
        40.300
 -25104774.664 8 -13178566.15646  21123845.984    21123838.730          48.600
        38.400
 16  1  1  0 26 30.0000000  0 10G32G06G07G03G31G01G26G09G23G16
 -20738253.868 8 -11342063.61545  22149613.297    22149607.449          48.000
        35.200
  -6719545.566 6  -5219711.487 6  24707084.055    24707085.770          38.300
        39.800    24707086.418
  -8202649.834 6  -6994051.616 6  24214579.680    24214577.703          41.000
        38.100    24214577.824
 -29046160.871 8 -22439727.973 8  20357142.883    20357138.328          51.400
        52.300    20357138.801
  -3005810.303 6  -2301526.923 6  24781270.344    24781264.145          40.900
        37.700    24781264.617
  -5115006.202 6  -3949208.789 6  24593030.891    24593034.305          36.500
        39.400    24593033.898
 -20479100.839 7 -15973598.063 7  22006871.914    22006868.473          46.700
        47.200    22006868.535
 -13840902.244 7 -11583211.361 7  23236108.438    23236105.758          43.800
        44.400    23236105.703
 -23850033.775 8 -17701673.56646  21274693.063    21274683.875          52.000
        40.300
 -25138257.092 8 -13204656.26346  21117474.359    21117466.871          48.100
        39.000
 16  1  1  0 27  0.0000000  0 10G32G06G07G03G31G01G26G09G23G16
 -20655417.635 7 -11277515.91245  22165376.320    22165371.355          47.500
        35.700
  -6739118.421 6  -5234962.940 6  24703359.602    24703361.141          38.400
        39.400    24703361.496
  -8284770.286 6  -7058041.219 6  24198952.617    24198950.406          40.700
        38.300    24198950.469
 -29017190.843 8 -22417153.901 8  20362655.867    20362651.137          51.400
        52.600    20362651.430
  -2908930.806 6  -2226036.350 6  24799705.195    24799700.465          41.400
        39.800    24799700.699
  -5026211.335 6  -3880018.205 6  24609927.453    24609930.809          36.600
        39.000    24609931.281
 -20447456.513 7 -15948940.084 7  22012894.609    22012890.523          46.200
        47.000    22012890.762
 -13913697.674 7 -11639934.865 7  23222255.406    23222252.902          43.600
        44.600    23222252.848
 -23892773.583 8 -17734977.24146  21266560.109    21266550.453          52.400
        40.500
 -25171127.885 8 -13230269.76546  21111219.203    21111211.832          48.200
        38.600
 16  1  1  0 27 30.0000000  0 10G32G06G07G03G31G01G26G09G23G16
 -20572280.651 8 -11212733.84745  22181196.781    22181191.402          48.300
        35.300
  -6758187.521 6  -5249821.852 6  24699730.922    24699732.285          38.100
        39.900    24699732.641
  -8366711.553 6  -7121891.198 6  24183358.555    24183357.105          41.100
        38.300    24183357.168
 -28987667.831 8 -22394148.944 8  20368273.711    20368268.922          50.900
        52.400    20368269.273
  -2812114.933 6  -2150595.367 6  24818128.609    24818123.527          40.100
        38.500    24818123.410
  -4937492.463 5  -3810886.827 6  24626810.734    24626814.148          35.800
        38.900    24626814.094
 -20415247.856 7 -15923842.372 7  22019023.688    22019019.543          46.200
        47.300    22019019.484
 -13986469.160 7 -11696639.721 7  23208407.523    23208404.609          44.100
        44.700    23208404.730
 -23935380.913 8 -17768177.67846  21258452.086    21258442.547          53.100
        40.300
 -25203384.276 7 -13255404.53346  21105081.086    21105073.422          47.300
        38.700
 16  1  1  0 28  0.0000000  0 10G32G06G07G03G31G01G26G09G23G16
 -20488845.252 8 -11147719.25145  22197074.000    22197068.859          48.100
        34.800
  -6776753.425 6  -5264288.679 6  24696198.023    24696199.152          38.300
        39.800    24696198.980
  -8448473.728 6  -7185601.626 6  24167800.031    24167798.582          41.000
        39.000    24167798.293
 -28957593.032 8 -22370714.015 8  20373996.773    20373992.043          51.500
        52.200    20373992.570
  -2715364.369 6  -2075205.212 6  24836539.758    24836533.969          40.400
        36.900    24836533.621
  -4848852.963 5  -3741817.293 6  24643678.641    24643682.230          35.200
        38.900    24643681.883
 -20382476.655 7 -15898306.317 7  22025259.516    22025256.074          46.300
        47.300    22025256.020
 -14059216.997 7 -11753326.151 7  23194563.938    23194561.141          43.500
        44.300    23194561.203
 -23977855.319 8 -17801274.54146  21250369.531    21250360.051          52.300
        39.900
 -25235026.252 7 -13280060.51446  21099059.648    21099051.633          46.800
        38.100
 16  1  1  0 28 30.0000000  0 10G32G06G07G03G31G01G26G09G23G16
 -20405112.884 8 -11082473.23945  22213007.375    22213002.527          48.100
        34.300
  -6794816.041 6  -5278363.344 6  24692760.359    24692761.898          37.900
        38.900    24692762.078
  -8530055.716 6  -7249171.654 6  24152275.016    24152272.805          41.400
        39.200    24152272.867
 -28926966.743 8 -22346849.359 8  20379824.914    20379820.184          50.800
        52.600    20379820.477
  -2618680.325 6  -1999866.875 6  24854938.227    24854932.613          39.200
        37.800    24854932.383
  -4760295.342 6  -3672811.549 6  24660530.547    24660534.313          36.400
        39.200    24660533.848
 -20349143.771 7 -15872332.589 7  22031602.586    22031598.969          46.400
        47.500    22031598.914
 -14131940.407 7 -11809993.583 7  23180724.820    23180721.730          44.100
        43.800    23180721.852
 -24020195.882 8 -17834267.10546  21242312.227    21242302.570          52.600
        40.100
 -25266051.683 7 -13304236.08046  21093155.461    21093147.797          47.400
        38.900
 16  1  1  0 29  0.0000000  0 10G32G06G07G03G31G01G26G09G23G16
 -20321085.189 8 -11016997.11745  22228997.703    22228992.324          48.000
        34.900
  -6812375.322 6  -5292045.806 6  24689418.914    24689420.160          38.200
        39.000    24689420.164
  -8611456.692 6  -7312600.645 6  24136784.750    24136782.832          41.300
        38.700    24136782.484
 -28895789.470 8 -22322555.370 8  20385757.367    20385752.461          51.200
        52.100    20385752.871
  -2522063.842 6  -1924581.204 6  24873323.523    24873317.910          39.900
        37.300    24873317.914
  -4671822.247 6  -3603871.671 6  24677366.828    24677370.125          36.000
        39.500    24677370.070
 -20315250.302 7 -15845922.040 7  22038052.109    22038048.375          46.500
        47.600    22038048.496
 -14204638.942 7 -11866641.619 7  23166890.867    23166887.660          44.300
        44.400    23166887.605
 -24062401.483 8 -17867154.49946  21234280.555    21234271.133          52.900
        41.100
 -25296459.071 8 -13327930.05246  21087369.367    21087361.586          48.200
        38.300
 16  1  1  0 29 30.0000000  0 10G32G06G07G03G31G01G26G09G23G16
 -20236764.073 8 -10951292.35545  22245043.633    22245038.078          48.400
        35.200
  -6829431.429 6  -5305336.155 6  24686173.156    24686174.109          38.100
        40.100    24686174.816
  -8692676.747 6  -7375888.661 6  24121328.977    24121326.883          40.400
        38.100    24121326.184
 -28864061.852 8 -22297832.539 8  20391795.094    20391790.363          51.500
        52.300    20391790.832
  -2425516.673 6  -1849349.486 6  24891695.352    24891690.090          39.200
        36.600    24891689.801
  -4583436.572 6  -3534999.925 6  24694185.711    24694189.770          36.000
        39.500    24694189.480
 -20280797.508 7 -15819075.661 7  22044608.367    22044604.516          46.400
        47.200    22044604.344
 -14277312.204 7 -11923269.987 7  23153061.281    23153058.250          43.700
        44.000    23153058.840
 -24104471.281 8 -17899936.07846  21226274.797    21226265.434          52.700
        40.500
 -25326246.943 8 -13351141.29546  21081700.359    21081692.988          48.300
        39.000
 16  1  1  0 30  0.0000000  0 10G32G06G07G03G31G01G26G09G23G16
 -20152150.630 7 -10885359.80245  22261144.703    22261139.324          47.000
        34.900
  -6845983.967 6  -5318234.108 6  24683023.273    24683023.758          37.200
        39.700    24683024.875
  -8773714.690 6  -7439034.786 6  24105907.984    24105905.129          41.800
        38.300    24105905.367
 -28831783.980 8 -22272680.939 8  20397937.398    20397932.609          49.800
        52.300    20397932.902
  -2329039.320 6  -1774172.175 6  24910054.531    24910048.566          37.900
        37.500    24910049.156
  -4495140.489 5  -3466197.969 6  24710988.008    24710991.891          34.100
        39.200    24710991.777
 -20245786.097 7 -15791793.994 7  22051270.742    22051267.184          44.000
        47.200    22051267.305
 -14349959.200 7 -11979877.883 7  23139236.852    23139233.586          43.900
        44.300    23139233.766
 -24146403.552 8 -17932610.49346  21218295.719    21218285.828          53.200
        40.400
 -25355412.976 7 -13373867.97746  21076150.445    21076143.191          47.200
        39.000
 16  1  1  0 30 30.0000000  0 10G32G06G07G03G31G01G26G09G23G16
 -20067246.950 7 -10819201.08445  22277301.250    22277296.227          47.000
        34.600
  -6862033.565 6  -5330740.174 6  24679968.906    24679969.859          37.600
        38.800    24679970.039
  -8854570.383 7  -7502038.904 6  24090521.195    24090518.809          42.200
        39.100    24090518.754
 -28798956.936 8 -22247101.415 8  20404184.141    20404179.410          51.100
        52.000    20404179.703
  -2232633.842 6  -1699050.856 6  24928399.563    24928393.773          39.200
        37.400    24928394.188
  -4406937.063 5  -3397468.227 6  24727772.844    24727776.492          35.100
        38.400    24727776.027
 -20210217.681 7 -15764078.300 7  22058039.453    22058035.191          46.500
        46.900    22058035.016
 -14422579.862 7 -12036465.271 7  23125417.578    23125414.137          43.400
        44.000    23125414.375
 -24188198.148 8 -17965177.62746  21210342.320    21210332.781          52.300
        40.800
 -25383956.812 7 -13396109.84346  21070718.930    21070710.738          47.900
        38.600
 16  1  1  0 31  0.0000000  0 10G32G06G07G03G31G01G26G09G23G16
 -19982054.553 7 -10752817.39245  22293512.992    22293507.730          47.800
        34.300
  -6877579.967 6  -5342854.119 6  24677010.547    24677011.617          38.800
        39.200    24677011.387
  -8935243.063 7  -7564900.427 6  24075169.570    24075166.891          42.400
        38.400    24075166.602
 -28765581.030 8 -22221094.198 8  20410535.289    20410530.500          50.300
        52.300    20410530.734
  -2136301.057 6  -1623986.156 6  24946731.508    24946725.250          38.700
        36.000    24946725.781
  -4318828.748 6  -3328812.593 6  24744539.930    24744543.227          37.200
        38.700    24744543.289
 -20174093.221 7 -15735929.329 7  22064913.227    22064909.668          43.500
        47.300    22064909.730
 -14495173.423 7 -12093031.520 7  23111603.156    23111600.359          44.700
        44.100    23111600.539
 -24229853.797 8 -17997636.49046  21202415.219    21202405.445          52.500
        40.400
 -25411876.507 8 -13417865.36146  21065405.625    21065398.020          48.200
        38.500
 16  1  1  0 31 30.0000000  0 10G32G06G07G03G31G01G26G09G23G16
 -19896575.567 7 -10686210.38745  22309779.047    22309773.727          46.900
        34.900
  -6892623.659 6  -5354576.360 6  24674148.586    24674148.836          37.300
        38.700    24674148.898
  -9015732.086 6  -7627618.846 6  24059852.758    24059849.785          41.800
        39.300    24059849.965
 -28731657.196 8 -22194660.024 8  20416990.906    20416986.059          52.100
        52.300    20416986.469
  -2040042.220 6  -1548979.117 6  24965048.133    24965042.285          36.600
        36.600    24965042.875
  -4230818.490 5  -3260233.358 6  24761287.695    24761291.168          35.900
        38.300    24761290.879
 -20137414.183 7 -15707348.235 7  22071892.633    22071889.484          47.500
        47.500    22071889.547
 -14567739.589 7 -12149576.431 7  23097794.563    23097791.414          43.100
        45.000    23097791.887
 -24271369.765 8 -18029986.51146  21194515.000    21194505.168          52.200
        40.300
 -25439170.914 8 -13439133.64446  21060211.711    21060204.223          48.900
        39.200
 16  1  1  0 32  0.0000000  0 10G32G06G07G03G31G01G26G09G23G16
 -19810811.023 7 -10619380.87645  22326099.539    22326094.277          46.800
        35.100
  -6907164.348 6  -5365906.638 6  24671381.219    24671381.938          38.100
        38.800    24671381.941
  -9096036.489 7  -7690193.412 6  24044570.766    24044568.320          42.400
        39.400    24044568.383
 -28697185.575 8 -22167798.993 8  20423550.555    20423545.590          51.100
        51.900    20423546.176
  -1943858.438 6  -1474030.557 6  24983351.344    24983345.320          37.700
        37.400    24983345.676
  -4142908.396 5  -3191732.181 6  24778016.227    24778019.992          34.900
        37.800    24778020.406
 -20100181.343 7 -15678335.594 7  22078978.148    22078974.121          44.300
        47.100    22078974.125
 -14640277.329 7 -12206099.185 7  23083991.063    23083987.738          44.600
        44.800    23083987.801
 -24312744.281 8 -18062226.30546  21186641.477    21186631.820          52.500
        40.600
 -25465838.545 8 -13459913.52446  21055137.336    21055128.969          48.400
        39.300
 16  1  1  0 32 30.0000000  0 10G32G06G07G03G31G01G26G09G23G16
 -19724762.793 7 -10552330.29345  22342474.234    22342468.738          46.600
        33.900
  -6921202.297 6  -5376845.193 6  24668709.664    24668710.207          37.900
        40.400    24668710.563
  -9176156.065 6  -7752623.961 6  24029325.008    24029321.684          41.300
        39.000    24029321.688
 -28662167.037 8 -22140511.797 8  20430214.203    20430209.590          51.700
        52.100    20430210.000
  -1847751.016 5  -1399141.487 6  25001639.641    25001634.027          35.800
        36.700    25001634.266
  -4055101.283 6  -3123311.242 6  24794725.391    24794729.449          37.400
        38.300    24794729.043
 -20062396.121 7 -15648892.526 7  22086168.492    22086164.582          46.200
        47.200    22086164.527
 -14712786.262 7 -12262599.471 7  23070192.781    23070189.457          43.600
        44.600    23070189.461
 -24353976.704 8 -18094355.37746  21178795.188    21178785.590          51.800
        40.700
 -25491878.014 8 -13480203.93146  21050181.852    21050174.129          48.700
        39.600
 16  1  1  0 33  0.0000000  0 10G32G06G07G03G31G01G26G09G23G16
 -19638432.821 7 -10485060.20045  22358901.898    22358896.520          47.000
        33.900
  -6934737.783 6  -5387392.202 6  24666133.992    24666134.301          38.300
        40.300    24666135.184
  -9256090.239 6  -7814910.029 6  24014113.461    24014110.723          40.800
        39.900    24014111.254
 -28626602.294 8 -22112798.978 8  20436982.227    20436977.262          51.700
        52.600    20436977.555
  -1751721.074 6  -1324312.772 5  25019913.680    25019907.949          37.400
        35.900    25019907.191
  -3967399.830 6  -3054972.636 6  24811414.828    24811418.770          36.500
        37.800    24811418.715
 -20024059.878 7 -15619020.088 7  22093463.484    22093460.219          47.300
        47.300    22093460.105
 -14785265.878 7 -12319076.902 7  23056399.813    23056397.074          43.400
        44.900    23056397.313
 -24395066.093 8 -18126372.99746  21170976.234    21170966.402          52.000
        40.500
 -25517287.985 8 -13500003.81546  21045346.078    21045338.590          49.100
        39.400
 16  1  1  0 33 30.0000000  0 10G32G06G07G03G31G01G26G09G23G16
 -19551822.409 7 -10417571.57045  22375383.164    22375378.141          46.800
        33.900
  -6947770.821 6  -5397547.700 6  24663653.438    24663654.625          37.000
        39.900    24663654.863
  -9335838.351 6  -7877051.105 6  23998937.594    23998934.445          40.800
        39.600    23998934.625
 -28590491.861 8 -22084660.947 8  20443853.563    20443848.949          51.700
        52.100    20443849.242
  -1655769.620 6  -1249545.275 6  25038171.750    25038166.313          37.400
        37.400    25038166.902
  -3879806.357 6  -2986718.170 6  24828083.195    24828087.957          37.900
        37.700    24828087.609
 -19985173.671 7 -15588719.115 7  22100863.359    22100859.332          46.900
        46.900    22100859.156
 -14857715.400 7 -12375530.879 7  23042613.047    23042610.016          44.100
        44.500    23042609.961
 -24436011.204 8 -18158278.20646  21163184.656    21163174.883          51.800
        41.400
 -25542067.161 8 -13519312.16146  21040630.984    21040623.027          49.500
        39.500
 16  1  1  0 34  0.0000000  0 10G32G06G07G03G31G01G26G09G23G16
 -19464933.860 7 -10349866.22445  22391917.781    22391912.402          45.800
        33.600
  -6960302.054 6  -5407312.188 6  24661269.148    24661269.750          37.200
        39.400    24661269.578
  -9415400.236 6  -7939047.070 6  23983797.305    23983793.629          41.100
        39.400    23983793.750
 -28553836.878 8 -22056098.595 8  20450828.844    20450823.996          52.200
        52.300    20450824.289
  -1559898.286 6  -1174840.236 6  25056416.320    25056410.180          37.100
        36.900    25056410.418
  -3792323.942 6  -2918550.239 6  24844731.148    24844735.031          37.200
        37.500    24844734.625
 -19945739.184 7 -15557990.914 7  22108366.977    22108363.770          46.800
        46.500    22108363.598
 -14930134.637 7 -12431961.244 7  23028832.422    23028829.156          43.800
        44.700    23028829.277
 -24476811.296 8 -18190070.40846  21155420.211    21155410.613          51.700
        40.800
 -25566214.443 8 -13538128.13846  21036035.766    21036027.867          48.900
        39.400
 16  1  1  0 34 30.0000000  0 10G32G06G07G03G31G01G26G09G23G16
 -19377768.369 7 -10281945.06145  22408504.805    22408499.664          46.800
        34.300
  -6972331.233 6  -5416685.453 6  24658979.469    24658980.246          36.900
        39.600    24658980.484
  -9494774.742 6  -8000897.022 6  23968692.047    23968689.074          41.100
        39.200    23968689.254
 -28516637.594 8 -22027112.114 8  20457907.766    20457902.977          51.900
        52.700    20457903.387
  -1464107.564 6  -1100198.048 6  25074644.203    25074638.824          36.900
        37.300    25074638.477
  -3704954.712 6  -2850470.525 6  24861356.297    24861361.352          38.000
        37.500    24861361.121
 -19905757.310 7 -15526836.171 7  22115975.492    22115971.816          47.000
        47.200    22115971.703
 -15002522.478 7 -12488367.147 7  23015057.336    23015053.777          42.700
        44.700    23015053.488
 -24517464.992 8 -18221748.54446  21147684.008    21147674.410          53.000
        41.000
 -25589728.292 8 -13556450.52646  21031561.570    21031553.145          49.500
        39.400
 16  1  1  0 35  0.0000000  0 10G32G06G07G03G31G01G26G09G23G16
 -19290328.083 7 -10213809.76945  22425143.938    22425138.676          45.800
        33.700
  -6983859.039 6  -5425668.059 6  24656785.688    24656786.699          38.300
        39.900    24656786.762
  -9573961.835 6  -8062600.942 6  23953623.766    23953620.031          40.800
        40.200    23953620.328
 -28478895.196 8 -21997702.422 8  20465089.781    20465084.934          52.900
        52.600    20465085.168
  -1368399.035 6  -1025619.882 6  25092856.516    25092851.078          36.300
        37.200    25092851.141
  -3617701.500 6  -2782481.199 6  24877960.688    24877964.980          38.400
        37.100    24877964.809
 -19865229.834 7 -15495256.283 7  22123688.000    22123683.855          45.900
        47.300    22123683.738
 -15074878.762 7 -12544748.463 7  23001288.375    23001284.758          43.600
        44.800    23001284.879
 -24557971.448 8 -18253311.94946  21139975.953    21139966.063          52.400
        40.900
 -25612607.940 8 -13574278.73446  21027207.422    21027199.348          49.200
        39.200
 16  1  1  0 35 30.0000000  0 10G32G06G07G03G31G01G26G09G23G16
 -19202614.696 7 -10145461.67445  22441835.563    22441830.184          46.200
        33.100
  -6994885.933 6  -5434260.331 6  24654687.711    24654688.195          38.200
        39.400    24654687.848
  -9652960.964 6  -8124158.392 6  23938590.555    23938587.113          39.800
        40.000    23938587.000
 -28440610.460 8 -21967870.139 8  20472375.203    20472370.180          51.000
        52.400    20472370.648
  -1272773.947 6   -951106.764 6  25111053.734    25111048.297          37.500
        37.000    25111048.359
  -3530567.010 6  -2714584.384 6  24894542.422    24894546.832          37.700
        36.600    24894546.016
 -19824158.054 7 -15463252.264 7  22131503.539    22131500.039          44.300
        46.800    22131500.043
 -15147202.878 7 -12601104.726 7  22987525.180    22987521.563          43.500
        44.700    22987521.801
 -24598329.412 8 -18284759.64846  21132296.211    21132286.145          52.300
        40.800
 -25634851.751 8 -13591611.48046  21022974.484    21022966.293          49.500
        39.100
 16  1  1  0 36  0.0000000  0 10G32G06G07G03G31G01G26G09G23G16
 -19114629.930 7 -10076902.12945  22458578.531    22458573.391          46.200
        33.200
  -7005411.741 6  -5442462.161 6  24652683.930    24652684.824          38.400
        39.300    24652685.297
  -9731771.549 6  -8185568.926 6  23923592.875    23923589.434          39.200
        39.700    23923589.438
 -28401784.075 8 -21937615.794 8  20479763.273    20479758.777          50.300
        51.900    20479759.133
  -1177232.939 6   -876659.164 6  25129235.094    25129228.953          37.300
        36.500    25129228.430
  -3443553.554 6  -2646781.866 6  24911099.813    24911105.277          38.100
        36.300    24911104.930
 -19782543.243 7 -15430825.101 7  22139422.875    22139418.555          43.600
        46.700    22139418.555
 -15219494.036 7 -12657435.313 7  22973767.781    22973764.867          44.100
        44.700    22973764.461
 -24638537.855 8 -18316090.84246  21124644.781    21124634.773          52.500
        41.100
 -25656459.215 8 -13608448.37146  21018862.234    21018854.453          49.100
        39.300
 16  1  1  0 36 30.0000000  0 10G32G06G07G03G31G01G26G09G23G16
 -19026375.263 7 -10008132.27145  22475372.633    22475367.254          46.000
        33.100
  -7015436.730 6  -5450273.712 6  24650776.500    24650776.867          37.400
        39.500    24650777.926
  -9810392.852 6  -8246831.959 6  23908630.672    23908628.227          38.700
        40.000    23908627.703
 -28362416.614 8 -21906939.823 8  20487254.867    20487250.195          52.900
        52.100    20487250.547
  -1081777.186 6   -802277.997 6  25147399.281    25147393.785          36.800
        36.500    25147393.613
  -3356663.387 6  -2579075.432 6  24927635.078    24927639.840          39.200
        36.100    24927639.434
 -19740386.623 7 -15397975.745 7  22147445.008    22147440.688          47.200
        46.800    22147440.746
 -15291751.373 7 -12713739.550 7  22960018.141    22960014.348          44.500
        44.800    22960014.703
 -24678595.568 8 -18347304.57346  21117022.063    21117012.465          53.000
        40.800
 -25677428.585 8 -13624788.05546  21014872.055    21014863.922          49.900
        39.400
 16  1  1  0 37  0.0000000  0 10G32G06G07G03G31G01G26G09G23G16
 -18937852.686 7  -9939153.63445  22492218.492    22492212.996          45.400
        33.100
  -7024961.634 6  -5457695.602 6  24648964.344    24648964.594          39.200
        39.800    24648965.184
  -9888824.585 6  -8307947.282 6  23893706.047    23893702.430          38.500
        39.800    23893702.316
 -28322509.309 8 -21875843.200 8  20494848.914    20494843.711          52.300
        52.000    20494844.008
   -986408.030 6   -727964.345 6  25165547.289    25165541.617          38.000
        36.000    25165541.680
  -3269899.509 6  -2511467.400 6  24944145.695    24944150.516          36.600
        36.000    24944149.641
 -19697689.892 7 -15364705.530 7  22155570.070    22155565.809          47.100
        46.600    22155566.047
 -15363974.594 7 -12770017.217 7  22946274.242    22946270.742          43.500
        44.800    22946270.922
 -24718501.548 8 -18378400.08046  21109428.258    21109418.191          52.400
        40.900
 -25697759.133 8 -13640629.95546  21011003.328    21010995.371          49.800
        39.600
 16  1  1  0 37 30.0000000  0 10G32G06G07G03G31G01G26G09G23G16
 -18849064.235 7  -9869967.82345  22509114.086    22509108.414          46.800
        33.100
  -7033986.997 6  -5464728.216 6  24647246.336    24647246.879          37.100
        40.100    24647246.883
  -9967066.495 6  -8368914.689 6  23878816.984    23878813.250          41.100
        39.800    23878813.547
 -28282063.166 8 -21844326.704 8  20502545.586    20502540.680          52.500
        52.300    20502541.090
   -891126.421 6   -653718.861 6  25183678.492    25183673.645          36.600
        37.000    25183673.645
  -3183264.526 6  -2443959.818 6  24960632.227    24960636.637          37.100
        36.100    24960635.938
 -19654454.752 7 -15331015.776 7  22163796.906    22163792.996          46.100
        47.000    22163792.766
 -15436163.221 7 -12826267.941 7  22932537.109    22932533.551          44.000
        45.100    22932533.496
 -24758254.758 8 -18409376.54246  21101863.234    21101853.461          51.900
        41.000
 -25717449.695 8 -13655973.16346  21007256.164    21007248.324          49.500
        39.400
 16  1  1  0 38  0.0000000  0 10G32G06G07G03G31G01G26G09G23G16
 -18760011.240 7  -9800575.87745  22526060.102    22526054.840          46.100
        33.200
  -7042512.676 6  -5471371.480 6  24645623.578    24645624.121          37.400
        39.700    24645624.652
 -10045117.470 6  -8429733.319 6  23863964.516    23863960.195          41.100
        38.900    23863960.668
 -28241078.596 8 -21812390.647 8  20510344.859    20510339.719          53.100
        52.200    20510340.188
   -795933.587 6   -579542.639 6  25201792.750    25201788.371          36.600
        36.900    25201788.137
  -3096760.505 6  -2376554.287 6  24977093.531    24977097.766          37.400
        36.600    24977097.711
 -19610682.120 7 -15296907.186 7  22172126.164    22172122.664          45.600
        46.700    22172122.551
 -15508316.006 7 -12882490.711 7  22918806.508    22918803.125          44.700
        45.200    22918803.129
 -24797853.913 8 -18440232.95446  21094327.570    21094317.563          52.500
        40.500
 -25736499.139 8 -13670816.80946  21003631.297    21003623.574          49.700
        39.900
 16  1  1  0 38 30.0000000  0 10G32G06G07G03G31G01G26G09G23G16
 -18670695.806 7  -9730979.44245  22543056.008    22543050.746          46.100
        33.100
  -7050539.546 6  -5477626.046 6  24644096.023    24644096.098          36.900
        40.200    24644097.156
 -10122977.506 6  -8490403.187 6  23849147.664    23849143.520          41.600
        38.400    23849143.523
 -28199556.870 8 -21780036.032 8  20518246.047    20518241.023          52.700
        52.000    20518241.434
   -700830.371 6   -505436.268 6  25219890.578    25219885.848          37.400
        36.200    25219885.906
  -3010390.279 5  -2309252.985 6  24993529.086    24993533.965          35.700
        36.100    24993533.031
 -19566373.874 7 -15262381.254 7  22180558.297    22180554.211          46.000
        46.600    22180554.094
 -15580432.708 7 -12938685.392 7  22905083.734    22905079.824          43.200
        45.400    22905080.004
 -24837298.058 8 -18470968.57746  21086821.813    21086811.688          51.600
        41.000
 -25754906.986 8 -13685160.49946  21000128.031    21000120.484          49.800
        39.200
 16  1  1  0 39  0.0000000  0 10G32G06G07G03G31G01G26G09G23G16
 -18581119.625 7  -9661179.83445  22560101.961    22560096.582          46.300
        31.800
  -7058067.821 5  -5483492.110 6  24642663.336    24642664.113          35.300
        39.900    24642664.586
 -10200646.115 7  -8550923.898 6  23834368.016    23834363.461          42.600
        38.500    23834363.992
 -28157498.769 8 -21747263.460 8  20526249.078    20526244.582          52.700
        51.700    20526244.816
   -605817.928 6   -431400.621 6  25237970.633    25237966.137          37.300
        36.700    25237965.785
  -2924156.145 5  -2242057.760 6  25009939.586    25009944.465          35.400
        36.100    25009943.180
 -19521531.362 7 -15227439.001 7  22189091.148    22189087.414          46.100
        46.400    22189087.184
 -15652512.447 7 -12994851.246 7  22891366.469    22891363.145          43.200
        45.400    22891363.383
 -24876585.901 8 -18501582.41746  21079345.188    21079335.473          51.700
        41.100
 -25772671.864 8 -13699003.18546  20996747.734    20996739.836          49.500
        39.700
 16  1  1  0 39 30.0000000  0 10G32G06G07G03G31G01G26G09G23G16
 -18491284.542 7  -9591178.48545  22577197.070    22577191.750          47.000
        32.700
  -7065098.106 6  -5488970.122 6  24641325.531    24641326.133          37.400
        40.900    24641326.898
 -10278122.795 6  -8611295.047 6  23819624.320    23819620.176          41.900
        39.200    23819620.297
 -28114905.411 8 -21714073.807 8  20534354.414    20534349.625          50.800
        52.400    20534349.977
   -510897.258 6   -357436.460 5  25256033.563    25256028.066          36.500
        35.900    25256028.422
  -2838060.740 6  -2174970.617 6  25026323.320    25026327.613          36.100
        36.600    25026327.266
 -19476156.215 7 -15192081.714 7  22197725.586    22197721.852          42.700
        46.500    22197721.621
 -15724554.643 7 -13050987.839 7  22877657.625    22877653.832          43.700
        46.000    22877654.188
 -24915716.440 8 -18532073.66846  21071898.828    21071889.113          52.600
        41.500
 -25789792.614 8 -13712343.94746  20993489.695    20993481.270          50.000
        40.000
 16  1  1  0 40  0.0000000  0 10G32G06G07G03G31G01G26G09G23G16
 -18401192.364 7  -9520976.79445  22594340.727    22594335.879          46.000
        32.500
  -7071630.889 5  -5494060.487 6  24640082.258    24640082.801          35.500
        40.300    24640083.098
 -10355407.156 6  -8671516.315 6  23804916.875    23804913.082          41.700
        38.900    23804913.320
 -28071777.739 8 -21680467.808 8  20542561.484    20542556.754          52.300
        51.900    20542557.164
   -416069.272 6   -283544.518 5  25274079.891    25274073.340          36.900
        35.700    25274073.695
  -2752106.501 5  -2107993.483 6  25042679.578    25042684.105          35.400
        38.300    25042684.461
 -19430249.988 7 -15156310.601 7  22206461.109    22206457.199          45.800
        46.300    22206457.145
 -15796558.602 7 -13107094.648 7  22863955.602    22863951.867          43.700
        45.400    22863951.871
 -24954688.582 8 -18562441.51046  21064482.891    21064472.707          51.900
        41.000
 -25806268.915 8 -13725182.55546  20990354.008    20990345.875          50.000
        39.700
 16  1  1  0 40 30.0000000  0 11G32G06G07G03G31G27G01G26G09G23G16
 -18310844.873 7  -9450576.16845  22611533.633    22611528.609          46.300
        32.300
  -7077666.568 6  -5498763.476 6  24638933.969    24638933.984          36.900
        40.000    24638933.988
 -10432498.439 6  -8731587.147 6  23790246.344    23790242.668          40.000
        39.900    23790242.906
 -28028116.646 8 -21646446.160 8  20550869.930    20550864.965          51.100
        52.400    20550865.551
   -321334.988 6   -209725.581 5  25292106.328    25292100.773          37.700
        34.700    25292100.367
   -367592.944 5   -273658.599 5  25683563.656                          30.100
        33.600    25683567.133
  -2666295.909 5  -2041128.287 6  25059009.273    25059014.035          35.500
        37.500    25059013.395
 -19383814.098 7 -15120126.760 7  22215298.008    22215293.805          44.100
        46.000    22215293.688
 -15868523.514 7 -13163171.014 7  22850261.398    22850257.195          44.500
        45.500    22850257.137
 -24993500.821 8 -18592684.76046  21057097.117    21057087.109          51.700
        41.600
 -25822099.623 8 -13737518.10046  20987341.578    20987333.328          49.700
        40.000
 16  1  1  0 41  0.0000000  0 11G32G06G07G03G31G27G01G26G09G23G16
 -18220244.369 7  -9379978.41545  22628774.289    22628769.086          46.500
        32.400
  -7083206.195 6  -5503079.949 6  24637878.484    24637880.316          37.000
        39.700    24637880.438
 -10509396.588 6  -8791507.490 6  23775612.781    23775609.398          40.900
        39.500    23775609.227
 -27983923.670 8 -21612010.055 8  20559279.539    20559274.809          51.800
        52.500    20559275.277
   -226695.488 6   -135980.456 6  25310115.484    25310109.988          36.600
        36.000    25310109.758
   -436986.104 5   -327730.893 6  25670360.039                          35.200
        37.000    25670361.582
  -2580631.757 5  -1974377.227 6  25075310.328    25075315.266          35.000
        38.100    25075314.508
 -19336850.681 7 -15083531.849 7  22224234.852    22224230.473          46.400
        46.300    22224230.473
 -15940449.162 7 -13219216.800 7  22836573.805    22836569.836          42.800
        46.000    22836570.016
 -25032152.876 8 -18622803.18146  21049741.656    21049731.883          51.800
        41.300
 -25837284.389 8 -13749350.32046  20984452.188    20984443.996          49.000
        39.400
 16  1  1  0 41 30.0000000  0 10G32G06G07G03G31G01G26G09G23G16
 -18129392.088 7  -9309184.45145  22646062.945    22646057.805          46.100
        32.600
  -7088249.787 6  -5507009.898 6  24636919.016    24636919.969          37.600
        39.400    24636920.148
 -10586100.905 6  -8851276.813 6  23761016.281    23761012.723          41.100
        38.300    23761012.434
 -27939199.273 8 -21577159.851 8  20567790.344    20567785.203          50.400
        52.600    20567785.496
   -132151.490 6    -62309.742 5  25328105.750    25328101.195          37.000
        35.800    25328100.668
  -2495116.017 5  -1907741.802 6  25091584.008    25091588.945          35.200
        38.700    25091588.363
 -19289360.787 7 -15046526.695 7  22233272.000    22233267.680          43.000
        46.400    22233267.859
 -16012334.306 7 -13275231.026 7  22822894.367    22822890.164          43.600
        45.900    22822890.344
 -25070642.957 8 -18652795.40246  21042417.164    21042407.098          52.300
        41.100
 -25851821.675 8 -13760678.00946  20981685.391    20981677.434          49.500
        38.900
 16  1  1  0 42  0.0000000  0 10G32G06G07G03G31G01G26G09G23G16
 -18038289.998 7  -9238195.81445  22663399.547    22663393.875          45.800
        32.500
  -7092798.138 6  -5510553.960 6  24636053.773    24636054.141          37.800
        40.200    24636054.613
 -10662611.314 6  -8910895.056 6  23746457.234    23746452.621          40.400
        38.800    23746452.738
 -27893944.790 8 -21541896.589 8  20576402.008    20576396.926          51.200
        51.800    20576397.336
    -37704.546 6     11285.355 5  25346079.641    25346073.910          38.000
        35.100    25346073.504
  -2409751.327 5  -1841224.089 6  25107828.156    25107832.918          34.300
        38.900    25107832.570
 -19241346.265 7 -15009112.744 7  22242408.859    22242404.656          45.700
        46.400    22242404.422
 -16084178.406 7 -13331213.286 7  22809222.641    22809218.789          42.100
        45.500    22809218.793
 -25108969.714 8 -18682660.35646  21035124.031    21035114.082          52.400
        41.300
 -25865711.041 8 -13771500.81946  20979042.758    20979034.332          49.000
        39.800
 16  1  1  0 42 30.0000000  0 11G32G06G07G03G31G27G01G26G09G23G16
 -17946939.894 7  -9167013.92545  22680783.188    22680777.340          45.700
        32.500
  -7096851.655 6  -5513712.454 6  24635281.953    24635282.906          38.300
        39.100    24635283.262
 -10738927.089 6  -8970361.648 6  23731934.477    23731929.980          40.600
        38.800    23731929.688
 -27848161.080 8 -21506220.942 8  20585114.078    20585109.113          51.100
        52.300    20585109.523
     56644.796 6     84804.452 5  25364033.258    25364027.586          37.700
        34.900    25364027.473
    -52440.252 4                  25630572.602                          29.600

  -2324539.923 5  -1774825.804 6  25124043.641    25124048.754          34.700
        39.400    25124048.230
 -19192808.562 7 -14971291.127 7  22251644.961    22251641.109          46.000
        46.600    22251640.938
 -16155980.500 7 -13387162.821 7  22795558.922    22795555.070          43.100
        46.000    22795554.898
 -25147131.871 8 -18712397.04946  21027861.656    21027851.707          52.100
        41.200
 -25878951.124 8 -13781817.70246  20976522.969    20976514.777          48.300
        39.800
 16  1  1  0 43  0.0000000  0 11G32G06G07G03G31G27G01G26G09G23G16
 -17855344.159 7  -9095640.63545  22698213.086    22698207.590          44.700
        32.600
  -7100411.471 6  -5516486.227 6  24634604.953    24634605.262          38.600
        40.000    24634605.500
 -10815048.072 6  -9029676.437 6  23717449.234    23717444.797          41.000
        39.100    23717444.855
 -27801849.828 8 -21470134.235 8  20593926.563    20593921.832          51.100
        51.900    20593922.125
    150895.062 6    158246.345 5  25381968.711    25381962.746          37.500
        34.900    25381962.750
      4063.015 5                  25617262.672                          35.900

  -2239484.738 5  -1708549.234 6  25140229.734    25140233.559          34.800
        39.400    25140233.621
 -19143749.853 7 -14933063.521 7  22260980.492    22260976.582          45.000
        46.400    22260976.352
 -16227740.426 7 -13443079.502 7  22781903.883    22781899.328          42.700
        46.000    22781899.563
 -25185129.087 8 -18742005.21846  21020631.359    21020621.176          51.300
        41.200
 -25891542.385 8 -13791629.00546  20974126.836    20974118.410          49.400
        39.700
 16  1  1  0 43 30.0000000  0 11G32G06G07G03G31G27G01G26G09G23G16
 -17763503.999 7  -9024076.89245  22715689.648    22715683.801          46.000
        31.100
  -7103477.699 6  -5518875.373 6  24634021.789    24634021.746          36.400
        39.500    24634021.926
 -10890973.779 6  -9088839.075 6  23703000.688    23702996.309          41.400
        39.400    23702996.547
 -27755011.618 8 -21433636.919 8  20602839.992    20602835.496          50.300
        51.900    20602835.672
    245046.141 6    231610.976 5  25399884.250    25399878.695          37.200
        34.700    25399878.406
     19194.168 3   -385867.751 5  25603919.773                          23.800
        33.300    25603921.609
  -2154587.541 5  -1642395.757 6  25156384.586    25156389.758          34.600
        39.400    25156389.352
 -19094171.306 7 -14894430.841 7  22270415.219    22270411.074          43.800
        46.500    22270411.137
 -16299456.825 7 -13498962.272 7  22768256.383    22768252.063          43.900
        45.500    22768252.180
 -25222959.223 8 -18771483.19146  21013432.172    21013422.164          51.300
        41.000
 -25903483.356 8 -13800933.57946  20971854.281    20971845.914          48.700
        39.700
 16  1  1  0 44  0.0000000  0 11G32G06G07G03G31G27G01G26G09G23G16
 -17671421.219 7  -8952324.09545  22733211.867    22733206.902          45.500
        31.800
  -7106050.874 6  -5520880.339 6  24633532.523    24633532.188          36.400
        39.500    24633531.898
 -10966703.459 7  -9147848.958 6  23688589.234    23688585.617          43.200
        40.000    23688585.328
 -27707647.502 8 -21396729.792 8  20611852.820    20611847.973          49.000
        51.700    20611848.617
    339096.690 6    304897.240 5  25417781.484    25417776.164          36.700
        34.500    25417775.934
     46594.306 5   -411842.381 5  25590550.859                          34.600
        35.800    25590550.000
  -2069850.785 5  -1576367.296 6  25172509.641    25172515.164          34.600
        39.000    25172514.523
 -19044074.522 7 -14855394.338 7  22279947.711    22279943.918          42.800
        46.500    22279944.273
 -16371128.877 7 -13554810.484 7  22754617.688    22754613.250          44.600
        46.400    22754613.547
 -25260621.460 8 -18800830.33246  21006265.297    21006255.289          50.500
        41.600
 -25914773.250 7 -13809730.82246  20969706.141    20969697.715          47.600
        39.800
 16  1  1  0 44 30.0000000  0 10G32G06G07G03G31G01G26G09G23G16
 -17579098.472 7  -8880384.29345  22750780.578    22750775.496          45.400
        31.900
  -7108132.446 6  -5522502.231 6  24633135.930    24633135.887          36.400
        39.600    24633136.125
 -11042236.996 7  -9206705.997 6  23674215.555    23674211.703          43.500
        40.900    23674212.059
 -27659759.284 8 -21359414.278 8  20620965.781    20620961.051          50.200
        52.000    20620961.402
    433045.502 6    378104.229 5  25435659.766    25435652.922          37.700
        34.700    25435653.043
  -1985277.444 5  -1510466.176 6  25188603.461    25188609.043          33.700
        39.400    25188608.578
 -18993461.815 7 -14815955.822 7  22289578.898    22289575.340          43.000
        46.500    22289575.227
 -16442756.376 7 -13610623.987 7  22740987.172    22740983.203          44.500
        46.500    22740983.324
 -25298114.843 8 -18830045.89746  20999130.719    20999120.418          50.800
        41.200
 -25925411.994 8 -13818020.67846  20967681.570    20967673.320          49.000
        39.600
 16  1  1  0 45  0.0000000  0 11G32G06G07G03G31G27G01G26G09G23G16
 -17486537.053 7  -8808258.54345  22768394.484    22768389.047          45.400
        32.100
  -7109722.593 6  -5523741.186 6  24632833.133    24632832.973          38.600
        39.400    24632833.152
 -11117573.955 7  -9265409.857 6  23659879.078    23659874.758          43.400
        40.500    23659874.758
 -27611347.738 8 -21321690.968 8  20630178.023    20630173.410          50.500
        51.600    20630173.883
    526892.175 6    451231.577 5  25453517.992    25453511.207          38.300
        34.700    25453511.328
    129383.948 5   -509270.089 6  25563741.453                          34.300
        37.400    25563740.828
  -1900869.556 5  -1444693.983 6  25204665.563    25204671.027          33.800
        39.600    25204670.973
 -18942334.555 7 -14776116.343 7  22299308.656    22299304.336          44.500
        46.200    22299304.160
 -16514338.171 7 -13666401.866 7  22727365.406    22727360.852          44.900
        46.000    22727361.086
 -25335437.973 8 -18859128.81246  20992028.133    20992017.891          50.300
        40.900
 -25935398.705 8 -13825802.45446  20965780.914    20965772.723          48.400
        40.200
 16  1  1  0 45 30.0000000  0 11G32G06G07G03G31G27G01G26G09G23G16
 -17393739.232 7  -8735948.57845  22786053.547    22786048.285          44.500
        31.600
  -7110822.381 6  -5524598.053 6  24632623.539    24632623.203          38.800
        39.900    24632623.617
 -11192714.251 7  -9323960.478 6  23645580.422    23645575.867          42.800
        40.700    23645575.926
 -27562414.354 8 -21283561.022 8  20639489.820    20639484.797          50.200
        52.000    20639485.207
    620635.341 6    524278.301 5  25471356.688    25471350.605          37.300
        34.300    25471349.906
    274867.895 5   -549171.822 6  25550296.813                          34.800
        36.100    25550298.941
  -1816629.635 5  -1379052.698 6  25220696.195    25220702.070          34.700
        39.600    25220701.664
 -18890694.752 7 -14735877.470 7  22309135.352    22309131.031          45.000
        46.400    22309130.973
 -16585873.756 7 -13722143.748 7  22713752.766    22713748.387          42.300
        46.200    22713748.742
 -25372590.029 8 -18888078.41746  20984958.523    20984948.223          49.600
        41.800
 -25944732.742 7 -13833075.65646  20964004.805    20963996.379          47.000
        39.900
 16  1  1  0 46  0.0000000  0 11G32G06G07G03G31G27G01G26G09G23G16
 -17300706.349 7  -8663455.43045  22803756.430    22803751.582          44.700
        31.400
  -7111432.144 6  -5525073.085 6  24632507.453    24632507.117          38.300
        40.100    24632507.414
 -11267657.198 7  -9382357.335 6  23631319.031    23631314.301          44.400
        40.400    23631314.652
 -27512960.073 8 -21245025.191 8  20648900.875    20648895.734          50.100
        52.000    20648896.027
    714274.190 6    597243.758 5  25489175.422    25489169.516          37.900
        33.900    25489169.578
    204102.21014   -604313.69716  25536828.719                          29.900
        38.300    25536831.492
 -41118059.843 5 -32003543.984 6  25236694.070    25236699.711          32.600
        39.500    25236700.184
 -18838543.826 7 -14695240.318 7  22319059.109    22319054.730          44.900
        46.400    22319054.672
 -16657361.984 7 -13777848.724 7  22700148.906    22700144.527          44.600
        46.400    22700144.703
 -25409568.956 8 -18916893.11347  20977921.516    20977911.625          50.100
        42.100
 -25953413.878 7 -13839840.10746  20962352.672    20962344.539          47.900
        39.800
 16  1  1  0 46 30.0000000  0 11G32G06G07G03G31G27G01G26G09G23G16
 -17207440.577 7  -8590780.80845  22821504.813    22821499.316          45.700
        31.600
  -7111552.893 6  -5525167.087 6  24632483.867    24632484.234          37.700
        40.100    24632484.590
 -11342402.383 7  -9440600.088 6  23617095.516    23617090.375          44.900
        40.900    23617090.375
 -27462986.255 8 -21206084.519 8  20658410.414    20658405.449          48.000
        51.800    20658405.684
    807808.207 6    670127.570 5  25506974.094    25506968.188          39.400
        34.500    25506967.781
    133213.578 5   -659551.198 6  25523340.203                          30.500
        36.200    25523340.633
 -41034162.684 5 -31938169.798 6  25252659.711    25252665.352          33.100
        39.800    25252665.297
 -18785883.707 7 -14654206.390 7  22329080.336    22329075.957          42.800
        46.300    22329076.074
 -16728802.136 7 -13833516.253 7  22686554.406    22686549.852          43.900
        45.800    22686549.793
 -25446373.580 8 -18945572.00246  20970917.938    20970907.461          51.300
        41.500
 -25961441.106 8 -13846095.01746  20960825.023    20960816.715          48.500
        39.400
 16  1  1  0 47  0.0000000  0 11G32G06G07G03G31G27G01G26G09G23G16
 -17113945.942 7  -8517927.85545  22839296.039    22839290.836          44.300
        31.300
  -7111187.404 6  -5524882.199 6  24632553.484    24632554.203          38.400
        40.300    24632554.500
 -11416951.519 7  -9498690.089 6  23602909.242    23602904.453          45.000
        40.600    23602904.570
 -27412496.210 7 -21166741.603 8  20668018.320    20668013.414          47.700
        52.000    20668013.766
    901234.627 6    742927.584 5  25524753.344    25524746.617          38.200
        34.700    25524746.797
     62202.331 5   -714884.146 5  25509826.227                          34.200
        33.900    25509826.246
 -40950442.410 5 -31872933.458 6  25268592.031    25268596.852          33.500
        39.200    25268596.738
 -18732718.275 7 -14612778.716 7  22339197.195    22339192.875          43.200
        46.100    22339192.934
 -16800195.479 7 -13889147.303 7  22672968.336    22672963.898          45.000
        46.000    22672964.074
 -25483005.141 8 -18974116.03046  20963946.875    20963936.867          49.200
        41.500
 -25968816.433 8 -13851841.96146  20959421.797    20959413.195          49.800
        39.800
 16  1  1  0 47 30.0000000  0 11G32G06G07G03G31G27G01G26G09G23G16
 -17020220.514 7  -8444895.07545  22857131.836    22857126.574          44.800
        31.300
  -7110332.857 6  -5524216.205 6  24632717.063    24632716.727          38.300
        39.500    24632717.258
 -11491300.801 7  -9556624.360 6  23588760.828    23588755.863          44.400
        41.100    23588756.566
 -27361487.593 8 -21126994.610 8  20677724.609    20677720.113          49.100
        51.600    20677720.406
    994555.903 6    815645.723 5  25542511.703    25542505.270          37.500
        35.000    25542505.273
     -8925.135 5   -770307.706 5  25496292.547    25496293.090          35.200
        34.500    25496291.160
 -40866897.707 5 -31807833.952 6  25284489.563    25284495.320          32.800
        39.800    25284494.855
 -18679045.634 7 -14570955.803 7  22349410.234    22349406.734          45.100
        46.300    22349406.914
 -16871537.454 7 -13944738.330 7  22659392.430    22659387.523          44.700
        46.000    22659387.582
 -25519458.625 8 -19002521.29646  20957009.844    20956999.836          50.500
        41.300
 -25975535.687 8 -13857077.67246  20958143.383    20958134.723          49.600
        40.100
 16  1  1  0 48  0.0000000  0 11G32G06G07G03G31G27G01G26G09G23G16
 -16926267.561 7  -8371684.99545  22875010.266    22875005.184          44.900
        31.400
  -7108991.372 6  -5523170.799 6  24632971.242    24632971.844          37.500
        40.000    24632972.141
 -11565451.339 7  -9614403.773 6  23574650.633    23574645.371          44.600
        40.900    23574645.199
 -27309963.026 8 -21086845.580 8  20687529.438    20687524.648          49.300
        52.300    20687524.941
   1087769.616 6    888279.999 5  25560248.938    25560242.621          36.200
        34.500    25560242.449
    -80167.536 5   -825820.904 6  25482734.883    25482736.480          34.000
        36.200    25482734.434
 -40783532.297 5 -31742874.174 6  25300353.703    25300359.578          32.200
        39.200    25300358.820
 -18624868.956 7 -14528740.139 7  22359720.133    22359715.695          45.600
        46.400    22359715.578
 -16942828.603 7 -14000289.763 7  22645826.055    22645821.559          45.500
        46.200    22645821.734
 -25555734.059 8 -19030787.81447  20950107.336    20950097.211          51.100
        42.200
 -25981599.761 8 -13861802.85446  20956989.047    20956980.855          48.900
        39.700
 16  1  1  0 48 30.0000000  0 11G32G06G07G03G31G27G01G26G09G23G16
 -16832089.151 7  -8298299.24745  22892931.711    22892926.746          44.900
        31.400
  -7107164.017 5  -5521746.803 6  24633317.383    24633318.570          35.400
        39.800    24633318.691
 -11639402.693 7  -9672027.963 6  23560577.719    23560572.695          45.000
        41.100    23560572.754
 -27257923.971 8 -21046295.647 8  20697432.055    20697427.383          48.300
        51.800    20697427.852
   1180875.278 6    960830.103 5  25577965.813    25577959.848          36.300
        35.000    25577959.090
   -151522.436 5   -881421.667 6  25469153.305    25469156.953          33.500
        36.100    25469154.672
 -40700348.441 5 -31678055.868 6  25316183.164    25316189.156          32.400
        39.400    25316188.398
 -18570190.218 7 -14486133.248 7  22370124.867    22370120.957          43.600
        46.300    22370120.785
 -17014068.181 7 -14055801.017 7  22632269.336    22632264.664          46.600
        46.100    22632264.840
 -25591830.322 8 -19058914.71446  20943238.094    20943227.734          50.200
        41.500
 -25987008.196 8 -13866017.16246  20955959.430    20955951.414          48.300
        39.800
 16  1  1  0 49  0.0000000  0 11G32G06G07G03G31G27G01G26G09G23G16
 -16737687.858 7  -8224739.81545  22910895.883    22910890.504          45.400
        30.700
  -7104852.191 5  -5519945.284 6  24633757.703    24633759.652          35.000
        39.700    24633760.184
 -11713154.934 7  -9729496.980 6  23546543.102    23546537.961          42.500
        40.800    23546537.844
 -27205372.453 8 -21005346.395 8  20707432.672    20707427.766          48.700
        51.100    20707428.059
   1273871.452 6   1033294.920 5  25595662.281    25595656.785          36.000
        33.800    25595656.320
   -222987.625 6   -937108.429 6  25455557.570    25455557.117          38.900
        38.800    25455556.184
 -40617349.237 5 -31613381.438 6  25331978.289    25331983.578          32.600
        38.900    25331983.230
 -18515011.945 7 -14443137.103 7  22380624.750    22380620.840          42.700
        46.200    22380620.785
 -17085255.916 7 -14111271.867 7  22618722.789    22618718.234          45.900
        46.200    22618718.469
 -25627746.691 8 -19086901.43346  20936403.445    20936393.086          50.700
        41.600
 -25991761.207 8 -13869720.74346  20955055.133    20955047.059          48.100
        39.200
 16  1  1  0 49 30.0000000  0 11G32G06G07G03G31G27G01G26G09G23G16
 -16643064.558 7  -8151007.37945  22928901.859    22928896.953          44.800
        31.900
  -7102055.718 6  -5517766.120 6  24634290.922    24634291.055          36.900
        40.000    24634291.820
 -11786706.684 7  -9786809.764 6  23532545.453    23532541.074          44.500
        41.000    23532541.133
 -27152308.679 8 -20963997.976 8  20717530.195    20717525.348          49.600
        51.500    20717525.465
   1366758.349 5   1105674.543 5  25613337.750    25613332.371          35.900
        34.500    25613331.379
   -294559.772 5   -992878.503 6  25441934.453    25441937.750          35.600
        37.300    25441936.582
 -40534535.846 5 -31548851.812 6  25347735.969    25347743.016          32.900
        39.200    25347742.199
 -18459334.935 7 -14399752.342 7  22391219.547    22391215.402          44.000
        46.300    22391215.523
 -17156389.901 7 -14166700.829 7  22605186.484    22605181.520          47.000
        46.400    22605181.754
 -25663480.804 8 -19114746.12946  20929603.414    20929593.289          49.800
        41.500
 -25995857.693 7 -13872912.74746  20954275.961    20954267.477          46.800
        39.900
 16  1  1  0 50  0.0000000  0 11G32G06G07G03G31G27G01G26G09G23G16
 -16548222.508 7  -8077104.48945  22946949.320    22946944.238          45.600
        30.400
  -7098777.146 6  -5515211.279 6  24634915.781    24634915.328          39.200
        40.400    24634915.859
 -11860059.161 6  -9843967.262 6  23518587.172    23518581.969          41.600
        41.100    23518582.324
 -27098735.579 8 -20922252.685 8  20727724.805    20727719.543          50.000
        51.400    20727719.840
   1459533.752 5   1177967.341 5  25630992.813    25630986.848          35.900
        32.900    25630986.148
   -366237.307 5  -1048730.713 5  25428294.359    25428296.953          35.700
        35.500    25428295.199
 -40451911.939 5 -31484469.844 6  25363460.094    25363465.441          33.800
        39.400    25363465.328
 -18403162.576 7 -14355981.597 7  22401908.906    22401904.645          44.100
        47.100    22401904.586
 -17227470.680 7 -14222088.315 7  22591660.289    22591655.500          45.900
        46.800    22591656.086
 -25699032.971 8 -19142449.04946  20922838.016    20922827.656          50.900
        41.300
 -25999298.465 7 -13875593.79946  20953620.945    20953612.461          47.500
        39.700
 16  1  1  0 50 30.0000000  0 11G32G06G07G03G31G27G01G26G09G23G16
 -16453162.970 7  -8003032.12544  22965038.766    22965033.742          44.900
        29.500
  -7095016.535 6  -5512280.851 6  24635631.617    24635630.168          38.000
        39.700    24635630.230
 -11933211.528 7  -9900968.833 6  23504666.250    23504661.402          44.200
        41.000    23504661.285
 -27044653.807 8 -20880111.015 8  20738016.086    20738011.531          50.500
        51.800    20738011.945
   1552197.512 6   1250173.215 5  25648625.266    25648619.945          36.500
        34.500    25648618.895
   -438017.008 5  -1104662.727 6  25414636.328    25414637.457          32.800
        37.900    25414636.406
 -40369479.116 5 -31420236.785 6  25379147.148    25379152.496          33.600
        38.900    25379152.090
 -18346496.054 7 -14311825.793 7  22412691.836    22412687.809          44.300
        46.300    22412687.695
 -17298496.684 7 -14277433.116 7  22578144.336    22578139.723          47.100
        46.700    22578140.195
 -25734401.012 8 -19170008.49046  20916107.602    20916097.301          51.100
        41.700
 -26002082.715 7 -13877763.27746  20953090.695    20953082.328          47.600
        39.900
 16  1  1  0 51  0.0000000  0 11G32G06G07G03G31G27G01G26G09G23G16
 -16357887.942 7  -7928791.84744  22983169.211    22983163.949          45.200
        29.600
  -7090774.936 6  -5508975.602 6  24636437.438    24636437.453          38.800
        40.200    24636437.574
 -12006163.734 7  -9957814.445 6  23490784.148    23490778.945          43.900
        40.700    23490779.301
 -26990064.859 8 -20837574.141 8  20748404.039    20748398.957          51.000
        51.800    20748399.250
   1644748.692 6   1322291.314 5  25666237.125    25666231.336          36.800
        33.800    25666231.398
   -509896.055 5  -1160672.011 5  25400959.289                          35.600
        35.500    25400957.434
 -40287239.569 5 -31356154.325 6  25394796.398    25394802.742          32.400
        38.900    25394802.277
 -18289337.297 7 -14267286.442 7  22423568.914    22423564.535          42.900
        46.300    22423564.535
 -17369467.012 7 -14332734.529 7  22564639.125    22564634.336          47.000
        46.400    22564634.395
 -25769583.939 8 -19197423.68846  20909412.594    20909402.410          51.000
        41.100
 -26004210.398 8 -13879421.14446  20952686.211    20952677.082          48.900
        40.300
 16  1  1  0 51 30.0000000  0 11G32G06G07G03G31G27G01G26G09G23G16
 -16262397.045 7  -7854383.35344  23001340.664    23001334.992          45.200
        29.400
  -7086050.922 6  -5505294.459 6  24637336.570    24637335.766          38.800
        39.500    24637336.355
 -12078912.965 7 -10014501.890 6  23476939.734    23476935.004          42.700
        40.700    23476935.297
 -26934967.828 8 -20794641.378 8  20758888.648    20758883.859          49.600
        51.100    20758884.328
   1737188.601 6   1394322.593 5  25683827.813    25683822.551          37.100
        34.700    25683821.969
  -2157289.591 6  -2444355.064 6  25387262.438                          37.100
        37.300    25387261.168
 -40205193.268 5 -31292222.431 6  25410408.781    25410415.535          33.500
        38.400    25410415.070
 -18231685.887 7 -14222363.200 7  22434539.719    22434535.281          42.200
        46.100    22434535.516
 -17440378.434 7 -14387990.039 7  22551144.367    22551139.871          46.100
        46.300    22551139.871
 -25804577.654 8 -19224691.44546  20902753.133    20902742.949          51.000
        41.900
 -26005679.033 8 -13880565.46246  20952406.531    20952398.105          48.400
        40.300
 16  1  1  0 52  0.0000000  0 11G32G06G07G03G31G27G01G26G09G23G16
 -16166700.184 7  -7779814.37644  23019550.805    23019545.602          45.400
        29.700
  -7080853.592 6  -5501244.481 6  24638324.750    24638325.117          37.800
        39.200    24638325.414
 -12151466.677 7 -10071036.992 6  23463133.086    23463128.004          44.300
        40.600    23463127.887
 -26879372.240 8 -20751320.127 8  20769468.148    20769463.066          50.200
        51.500    20769463.535
   1829509.162 5   1466260.996 5  25701395.469    25701389.621          35.300
        34.600    25701388.805
  -2229362.771 6  -2500515.732 5  25373548.602    25373545.688          37.300
        35.700    25373545.633
 -40123350.416 5 -31228449.080 6  25425984.445    25425990.203          34.900
        38.300    25425989.914
 -18173551.935 7 -14177063.960 7  22445602.281    22445597.961          44.100
        46.300    22445597.961
 -17511238.091 7 -14443205.222 7  22537660.172    22537655.969          46.800
        47.300    22537656.148
 -25839388.942 8 -19251817.05046  20896129.109    20896118.691          51.100
        41.700
 -26006496.159 7 -13881202.09946  20952250.906    20952242.480          47.000
        39.800
 16  1  1  0 52 30.0000000  0 11G32G06G07G03G31G27G01G26G09G23G16
 -16070790.614 7  -7705079.63445  23037802.352    23037796.914          45.500
        30.200
  -7075175.085 6  -5496819.557 6  24639404.930    24639405.180          38.100
        39.800    24639406.238
 -12223815.988 7 -10127412.836 6  23449365.516    23449360.375          44.700
        40.900    23449360.199
 -26823270.834 8 -20707604.745 8  20780143.797    20780139.066          50.100
        50.700    20780139.535
   1921718.297 5   1538112.564 5  25718942.008    25718935.809          35.700
        34.900    25718935.227
  -2301524.195 5  -2556745.278 6  25359813.750    25359814.117          34.800
        38.100    25359814.063
 -40041704.628 5 -31164829.275 6  25441520.781    25441527.711          35.100
        38.600    25441526.777
 -18114928.603 7 -14131383.405 7  22456758.023    22456753.879          43.900
        46.000    22456753.883
 -17582036.328 7 -14498372.550 7  22524187.695    22524183.199          47.300
        46.700    22524183.141
 -25874007.968 8 -19278792.83946  20889541.039    20889530.445          50.500
        41.800
 -26006653.092 7 -13881324.31446  20952220.977    20952212.258          47.900
        39.900
 16  1  1  0 53  0.0000000  0 11G32G06G07G03G31G27G01G26G09G23G16
 -15974673.337 7  -7630183.05144  23056092.883    23056087.328          45.600
        28.600
  -7069019.756 6  -5492023.114 6  24640576.742    24640576.934          37.900
        40.100    24640577.289
 -12295963.613 7 -10183631.512 6  23435636.531    23435630.801          44.300
        41.100    23435630.805
 -26766668.156 8 -20663498.734 8  20790915.203    20790910.063          49.300
        51.100    20790910.590
   2013812.322 5   1609874.493 5  25736467.086    25736461.414          34.200
        34.600    25736460.129
  -2373774.064 6  -2613043.635 5  25346067.016    25346064.805          36.100
        35.100    25346063.285
 -39960260.995 6 -31101367.012 6  25457019.695    25457025.629          36.000
        38.300    25457025.223
 -18055820.944 7 -14085325.447 7  22468005.734    22468001.238          44.400
        45.700    22468001.004
 -17652775.221 7 -14553493.634 7  22510726.781    22510722.168          47.500
        46.400    22510722.168
 -25908436.646 8 -19305620.30046  20882989.211    20882978.852          51.500
        41.500
 -26006152.805 7 -13880934.40946  20952316.172    20952307.512          46.700
        39.900
 16  1  1  0 53 30.0000000  0 11G32G06G07G03G31G27G01G26G09G23G16
 -15878350.385 7  -7555126.20444  23074422.438    23074416.707          45.200
        28.700
  -7062388.598 6  -5486855.858 6  24641838.258    24641839.152          37.500
        39.600    24641839.332
 -12367909.441 7 -10239692.955 6  23421945.750    23421939.785          44.700
        41.300    23421940.082
 -26709565.818 8 -20619003.396 8  20801781.492    20801775.879          49.400
        51.100    20801776.176
   2105790.540 5   1681546.199 5  25753969.359    25753964.156          34.500
        33.500    25753962.754
  -2446109.674 6  -2669408.875 6  25332301.375    25332300.453          36.300
        38.800    25332301.277
 -39879021.975 6 -31038064.191 6  25472479.563    25472485.203          36.400
        37.300    25472484.621
 -17996231.020 7 -14038891.710 7  22479345.438    22479340.766          43.800
        45.200    22479340.531
 -17723453.915 7 -14608567.813 7  22497276.867    22497272.078          47.300
        47.400    22497272.137
 -25942673.343 8 -19332298.18347  20876474.266    20876464.258          50.200
        42.000
 -26004995.229 8 -13880032.32246  20952536.117    20952527.691          49.700
        40.200
 16  1  1  0 54  0.0000000  0 11G32G06G07G03G31G27G01G26G09G23G16
 -15781823.925 7  -7479910.75944  23092790.734    23092785.594          45.000
        29.100
  -7055282.896 6  -5481318.836 6  24643190.477    24643191.254          38.700
        39.300    24643191.375
 -12439653.199 7 -10295596.947 6  23408292.375    23408286.996          44.400
        41.000    23408287.059
 -26651965.568 8 -20574120.066 8  20812742.336    20812737.371          49.400
        51.100    20812737.723
   2197651.516 5   1753126.538 5  25771449.547    25771444.523          34.300
        33.000    25771443.469
  -2518528.484 5  -2725838.934 6  25318520.172    25318519.133          34.600
        39.500    25318518.727
 -39797989.736 5 -30974922.496 6  25487898.172    25487905.512          35.700
        37.900    25487905.633
 -17936161.050 7 -13992083.910 7  22490775.984    22490771.840          44.600
        45.500    22490771.902
 -17794071.668 7 -14663594.491 7  22483838.484    22483834.047          46.600
        47.200    22483834.105
 -25976717.194 8 -19358825.78447  20869995.891    20869985.766          51.300
        42.000
 -26003180.167 8 -13878617.92346  20952881.578    20952873.270          50.200
        39.700
 16  1  1  0 54 30.0000000  0 11G32G06G07G03G31G27G01G26G09G23G16
 -15685095.450 7  -7404537.90944  23111197.445    23111192.305          44.500
        28.700
  -7047703.382 6  -5475412.622 6  24644632.891    24644633.199          38.600
        39.500    24644633.730
 -12511194.755 7 -10351343.388 6  23394678.813    23394672.906          44.600
        41.300    23394673.203
 -26593868.542 8 -20528849.649 8  20823797.875    20823792.734          48.900
        51.500    20823793.027
   2289395.192 5   1824615.474 5  25788908.688    25788902.254          33.900
        32.400    25788899.973
  -2591027.469 5  -2782331.406 5  25304722.078    25304723.324          32.000
        35.900    25304723.094
 -39717166.280 6 -30911943.483 6  25503279.844    25503286.188          36.300
        37.000    25503285.723
 -17875612.660 7 -13944903.300 7  22502298.039    22502293.895          44.300
        45.900    22502293.957
 -17864627.037 7 -14718572.554 7  22470412.102    22470407.605          47.300
        46.100    22470407.547
 -26010566.009 8 -19385201.41546  20863554.641    20863544.281          49.800
        41.900
 -26000707.357 8 -13876690.98146  20953352.070    20953343.996          49.600
        40.400
 16  1  1  0 55  0.0000000  0 11G32G06G07G03G31G27G01G26G09G23G16
 -15588167.469 7  -7329009.59644  23129641.813    23129636.492          44.500
        28.300
  -7039651.706 6  -5469138.471 6  24646165.133    24646165.266          38.700
        39.800    24646165.914
 -12582534.441 7 -10406932.520 7  23381102.391    23381097.070          43.800
        42.300    23381097.250
 -26535276.846 8 -20483193.761 8  20834947.336    20834942.371          48.700
        51.500    20834942.840
   2381020.148 5   1896011.855 5  25806343.242                          35.200
        32.300    25806336.344
  -2663603.993 5  -2838884.311 6  25290911.688    25290911.762          34.300
        37.900    25290911.473
 -39636554.045 6 -30849129.064 6  25518619.953    25518626.531          36.700
        36.800    25518625.773
 -17814588.385 7 -13897351.867 7  22513910.656    22513906.219          44.600
        45.900    22513906.043
 -17935119.631 7 -14773501.695 7  22456997.617    22456993.180          46.600
        47.300    22456993.238
 -26044219.209 8 -19411424.60947  20857150.563    20857140.438          49.900
        42.100
 -25997577.729 8 -13874252.23546  20953947.438    20953938.953          49.400
        40.000
 16  1  1  0 55 30.0000000  0 11G32G06G07G03G31G27G01G26G09G23G16
 -15491041.757 7  -7253327.21644  23148124.961    23148119.699          43.800
        29.300
  -7031128.682 6  -5462497.052 6  24647787.188    24647787.203          37.900
        40.500    24647787.383
 -12653671.094 7 -10462363.457 6  23367565.797    23367559.891          43.900
        41.400    23367559.953
 -26476191.798 8 -20437153.455 8  20846190.961    20846185.582          49.300
        51.300    20846185.938
   2472526.723 5   1967316.100 5  25823754.766                          30.100
        33.900    25823748.453
  -2736255.348 5  -2895495.520 6  25277086.820    25277086.719          35.400
        39.400    25277086.137
 -39556154.986 6 -30786480.765 6  25533919.469    25533926.340          36.300
        36.300    25533925.230
 -17753090.059 7 -13849431.056 7  22525613.523    22525608.793          44.000
        46.300    22525608.910
 -18005548.176 7 -14828380.914 7  22443595.352    22443590.621          46.400
        47.200    22443590.504
 -26077675.552 8 -19437494.40946  20850784.078    20850773.836          50.700
        41.900
 -25993790.776 8 -13871301.29146  20954668.211    20954659.727          48.900
        39.900
 16  1  1  0 56  0.0000000  0 11G32G06G07G03G31G27G01G26G09G23G16
 -15393720.329 7  -7177492.32644  23166643.906    23166638.824          43.200
        28.900
  -7022135.534 6  -5455489.292 6  24649498.758    24649498.246          38.900
        40.000    24649498.719
 -12724604.904 7 -10517636.350 6  23354067.680    23354061.656          44.600
        41.500    23354062.363
 -26416614.990 8 -20390729.957 8  20857528.258    20857522.938          49.400
        51.000    20857523.352
   2563914.170 5   2038527.366 5  25841147.531                          33.400
        30.400    25841137.645
  -2808978.472 6  -2952162.653 6  25263249.656    25263247.621          37.100
        38.200    25263245.984
 -39475971.356 6 -30724000.323 5  25549177.586    25549184.633          36.000
        35.700    25549184.051
 -17691119.711 7 -13801142.428 7  22537405.734    22537402.000          43.400
        45.900    22537401.711
 -18075911.682 7 -14883209.463 7  22430205.695    22430200.789          47.200
        47.000    22430200.848
 -26110933.247 8 -19463409.41847  20844455.625    20844445.090          51.200
        42.000
 -25989346.646 8 -13867838.25646  20955513.656    20955505.230          49.400
        40.000
 16  1  1  0 56 30.0000000  0 11G32G06G07G03G31G27G01G26G09G23G16
 -15296207.699 7  -7101508.43844  23185200.000    23185194.563          42.900
        29.100
  -7012676.121 6  -5448118.216 6  24651299.195    24651297.863          38.800
        40.200    24651298.102
 -12795338.175 7 -10572752.970 6  23340607.555    23340601.297          44.800
        41.300    23340601.242
 -26356550.854 8 -20343926.711 8  20868957.766    20868952.918          48.500
        50.800    20868953.445
 -41456580.93714 -32263156.80915  25858511.492                          27.600
        31.900    25858505.063
  -2881773.400 5  -3008885.634 6  25249394.867    25249395.059          33.100
        36.900    25249392.953
 -39396007.800 6 -30661691.350 6  25564394.961    25564402.359          37.100
        36.100    25564401.250
 -17628682.195 7 -13752489.782 7  22549287.508    22549283.129          42.400
        45.800    22549282.895
 -18146211.906 7 -14937988.701 7  22416827.898    22416822.875          47.600
        47.200    22416822.934
 -26143993.685 8 -19489170.71747  20838164.047    20838153.395          52.000
        42.200
 -25984248.087 8 -13863865.28246  20956484.023    20956475.422          50.100
        39.900
 16  1  1  0 57  0.0000000  0 10G32G06G07G03G27G01G26G09G23G16
 -15198499.908 7  -7025372.49044  23203793.352    23203788.445          43.000
        28.600
  -7002745.608 6  -5440380.051 6  24653188.609    24653187.512          38.800
        39.900    24653188.102
 -12865864.493 7 -10627708.343 6  23327185.711    23327180.746          45.200
        41.400    23327180.746
 -26295994.907 8 -20296740.250 8  20880481.016    20880476.227          49.500
        50.200    20880476.637
  -2954631.332 5  -3065657.743 6  25235530.117    25235530.309          33.700
        37.700    25235529.668
 -39316260.528 6 -30599550.891 6  25579571.586    25579578.809          36.800
        36.200    25579577.758
 -17565773.486 7 -13703469.979 7  22561258.656    22561253.867          44.100
        45.900    22561254.160
 -18216441.709 7 -14992713.075 7  22403463.320    22403458.355          47.700
        46.700    22403458.531
 -26176849.385 8 -19514772.47747  20831911.711    20831901.410          50.300
        42.000
 -25978488.948 8 -13859377.56346  20957579.945    20957571.168          49.600
        39.400
 16  1  1  0 57 30.0000000  0 10G32G06G07G03G27G01G26G09G23G16
 -15100604.316 7  -6949090.20044  23222422.422    23222417.219          42.900
        28.200
  -6992350.500 6  -5432279.884 6  24655166.570    24655165.473          39.100
        40.300    24655166.004
 -12936189.108 7 -10682506.535 6  23313803.875    23313797.734          45.500
        41.000    23313797.445
 -26234954.154 8 -20249176.021 8  20892096.695    20892091.906          50.000
        51.100    20892092.199
  -3027554.551 5  -3122480.700 6  25221655.578    25221653.191          33.800
        39.400    25221652.785
 -39236736.773 6 -30537584.608 5  25594703.094    25594711.430          36.300
        35.400    25594709.617
 -17502401.088 7 -13654088.862 7  22573317.773    22573313.512          44.600
        46.700    22573313.395
 -18286605.436 7 -15047385.957 7  22390111.742    22390106.777          47.500
        47.100    22390106.719
 -26209504.454 8 -19540217.90646  20825697.445    20825687.145          50.600
        41.800
 -25972075.102 8 -13854379.69346  20958800.211    20958791.609          50.300
        39.900
 16  1  1  0 58  0.0000000  0 11G32G06G07G03G31G27G01G26G09G23G16
 -15002521.323 7  -6872661.88044  23241086.633    23241081.844          44.700
        28.200
  -6981490.540 6  -5423817.488 6  24657232.367    24657231.855          38.400
        40.000    24657232.328
 -13006310.134 7 -10737146.098 6  23300459.961    23300454.172          45.000
        41.100    23300454.293
 -26173428.826 8 -20201234.223 8  20903804.453    20903799.430          48.900
        50.600    20903799.781
    332052.15714 -32056466.03914  25910474.586                          25.900
        29.400    25910468.332
  -3100538.943 5  -3179351.388 6  25207766.438    25207765.398          33.400
        39.900    25207765.285
 -39157437.324 6 -30475793.106 5  25609794.063    25609802.047          36.700
        35.300    25609800.293
 -17438565.536 7 -13604346.848 7  22585465.281    22585461.195          42.200
        45.700    22585460.844
 -18356700.508 7 -15102005.352 7  22376772.883    22376767.801          47.400
        46.800    22376767.859
 -26241955.865 8 -19565504.64847  20819521.945    20819511.645          50.900
        42.000
 -25965005.032 8 -13848870.48146  20960145.563    20960136.844          50.100
        40.100
 16  1  1  0 58 30.0000000  0 11G32G06G07G03G31G27G01G26G09G23G16
 -14904244.505 7  -6796082.51844  23259788.305    23259783.102          43.900
        27.400
  -6970158.583 6  -5414987.285 6  24659389.023    24659388.629          37.800
        40.400    24659388.867
 -13076219.280 7 -10791620.538 6  23287156.063    23287150.980          45.000
        41.000    23287151.098
 -26111412.186 8 -20152909.572 8  20915606.430    20915601.227          48.000
        51.100    20915601.758
    422841.080 5 -31985721.078 6  25927752.633    25927743.797          35.600
        36.300    25927745.383
  -3173573.279 5  -3236260.929 6  25193866.625    25193866.113          34.700
        39.600    25193865.063
 -39078355.826 5 -30414171.430 5  25624843.078    25624852.180          35.000
        35.100    25624849.719
 -17374260.621 7 -13554239.105 7  22597702.305    22597697.867          42.200
        45.900    22597697.457
 -18426717.536 7 -15156563.927 7  22363449.070    22363443.691          47.600
        47.300    22363443.930
 -26274193.744 8 -19590624.99747  20813387.406    20813377.281          51.300
        42.400
 -25957270.689 8 -13842843.65946  20961617.461    20961608.977          49.800
        39.800
 16  1  1  0 59  0.0000000  0 10G32G06G07G03G27G01G26G09G23G16
 -14805802.328 7  -6719374.31744  23278521.445    23278516.008          44.100
        29.300
  -6958382.303 6  -5405810.865 6  24661629.680    24661629.754          38.400
        40.500    24661630.402
 -13145942.513 7 -10845950.123 6  23273888.258    23273882.645          45.800
        41.700    23273882.648
 -26048932.250 8 -20104223.899 8  20927495.547    20927490.699          49.800
        50.800    20927490.934
  -3246681.079 5  -3293227.771 6  25179952.813    25179954.410          31.000
        38.700    25179953.066
 -38999520.658 5 -30352741.690 5  25639845.211    25639853.902          35.900
        35.900    25639851.852
 -17309514.848 7 -13503787.837 7  22610022.742    22610018.480          44.500
        45.500    22610018.363
 -18496681.791 7 -15211081.383 7  22350135.211    22350130.070          47.200
        47.500    22350129.895
 -26306243.132 8 -19615598.48047  20807288.797    20807278.320          52.100
        42.000
 -25948898.621 8 -13836319.90846  20963210.539    20963201.879          50.300
        39.600
 16  1  1  0 59 30.0000000  0 10G32G06G07G03G27G01G26G09G23G16
 -14707168.955 7  -6642517.11744  23297290.367    23297285.047          43.900
        28.900
  -6946135.121 6  -5396267.489 6  24663960.727    24663959.980          38.600
        39.900    24663959.926
 -13215451.987 7 -10900113.143 6  23260661.008    23260655.160          44.600
        41.400    23260655.398
 -25985963.044 8 -20055156.985 8  20939478.477    20939473.336          50.900
        50.800    20939473.570
  -3319831.433 5  -3350227.800 6  25166034.070    25166034.027          33.800
        40.300    25166033.738
 -38920906.064 5 -30291483.869 5  25654804.305                          34.800
        34.800    25654811.941
 -17244302.540 7 -13452973.026 7  22622432.234    22622427.504          44.900
        45.300    22622427.445
 -18566564.409 8 -15265535.237 7  22336836.742    22336831.539          48.000
        47.500    22336831.602
 -26338075.241 8 -19640402.65547  20801231.336    20801220.508          51.300
        42.000
 -25939861.108 8 -13829277.62546  20964930.242    20964921.523          50.900
        39.600
 16  1  1  1  0  0.0000000  0 10G32G06G07G03G27G01G26G09G23G16
 -14608355.857 7  -6565519.86244  23316094.039    23316089.074          42.700
        28.200
  -6933427.964 6  -5386365.704 6  24666379.125    24666377.676          39.200
        40.200    24666378.031
 -13284756.943 7 -10954116.788 6  23247472.555    23247466.531          44.300
        41.800    23247466.828
 -25922515.773 8 -20005717.548 8  20951551.852    20951546.828          49.600
        50.500    20951547.355
  -3393031.342 5  -3407266.486 6  25152103.531    25152103.898          34.300
        40.400    25152103.785
 -38842523.825 5 -30230407.086 5  25669721.641                          34.000
        34.100    25669726.992
 -17178635.412 7 -13401803.818 7  22634928.219    22634923.430          42.300
        44.600    22634923.430
 -18636373.909 7 -15319932.115 7  22323552.602    22323547.281          47.900
        47.600    22323547.344
 -26369697.688 8 -19665043.46047  20795213.602    20795203.125          51.300
        42.100
 -25930168.113 8 -13821724.56446  20966774.930    20966766.152          50.800
        39.700
 16  1  1  1  0 30.0000000  0 10G32G06G07G03G27G01G26G09G23G16
 -14509365.530 7  -6488384.52944  23334930.750    23334925.844          43.400
        28.900
  -6920262.579 5  -5376106.888 6  24668883.781    24668883.152          34.600
        40.000    24668883.391
 -13353858.151 7 -11007961.683 6  23234323.008    23234316.867          44.700
        41.900    23234317.047
 -25858592.779 8 -19955907.409 8  20963716.023    20963711.176          51.200
        50.900    20963711.645
  -3466278.077 5  -3464341.667 6  25138165.836    25138165.441          35.700
        40.400    25138165.621
 -38764376.051 5 -30169513.009 5  25684591.758                          32.500
        35.100    25684598.750
 -17112516.178 7 -13350282.325 7  22647509.930    22647505.551          45.200
        45.200    22647505.492
 -18706109.677 7 -15374271.547 7  22310282.156    22310276.660          47.400
        47.600    22310276.723
 -26401109.527 8 -19689520.13946  20789235.859    20789225.676          50.400
        41.900
 -25919820.599 8 -13813661.48646  20968743.906    20968735.363          50.400
        39.800
 16  1  1  1  1  0.0000000  0 10G32G06G07G03G27G01G26G09G23G16
 -14410199.960 7  -6411112.62944  23353801.992    23353796.969          42.200
        28.700
  -6906640.394 6  -5365492.088 6  24671475.672    24671475.570          38.900
        39.900    24671475.574
 -13422754.656 7 -11061647.062 6  23221212.664    23221206.230          45.100
        41.400    23221206.234
 -25794195.727 7 -19905727.879 8  20975970.063    20975965.449          47.800
        51.300    20975965.801
  -3539568.982 5  -3521451.258 6  25124218.133    25124217.738          35.300
        39.800    25124217.215
 -38686465.218 5 -30108803.556 5  25699418.148                          32.300
        34.500    25699425.316
 -17045946.949 6 -13298410.188 7  22660178.203    22660173.414          41.700
        44.300    22660173.355
 -18775770.558 7 -15428552.635 7  22297025.906    22297020.469          47.300
        47.200    22297020.531
 -26432309.456 8 -19713831.70147  20783298.891    20783288.531          50.900
        42.200
 -25908818.862 8 -13805088.61146  20970837.250    20970828.414          51.300
        39.600
 16  1  1  1  1 30.0000000  0 10G32G06G07G03G27G01G26G09G23G16
 -14310861.325 7  -6333705.87544  23372705.844    23372700.113          42.300
        28.400
  -6892562.848 6  -5354522.473 6  24674154.617    24674153.871          37.900
        40.400    24674154.402
 -13491446.737 7 -11115173.172 7  23208140.867    23208134.492          45.500
        42.100    23208134.789
 -25729326.591 8 -19855180.484 8  20988314.211    20988309.422          50.800
        51.000    20988309.832
  -3612901.120 6  -3578592.967 6  25110264.844    25110262.984          36.000
        38.700    25110262.871
 -38608792.956 5 -30048280.021 5  25714199.430                          33.500
        34.700    25714205.953
 -16978930.030 7 -13246189.201 7  22672931.180    22672925.977          45.800
        44.900    22672926.332
 -18845355.573 7 -15482774.614 7  22283784.172    22283779.148          47.800
        47.500    22283779.266
 -26463296.191 8 -19737977.13547  20777402.250    20777391.949          51.000
        42.100
 -25897163.257 8 -13796006.24246  20973055.172    20973046.219          50.700
        39.600
 16  1  1  1  2  0.0000000  0 10G32G06G07G03G27G01G26G09G23G16
 -14211351.424 7  -6256165.67544  23391641.500    23391636.180          42.300
        28.100
  -6878031.027 6  -5343198.867 6  24676919.391    24676919.523          38.800
        40.200    24676919.410
 -13559933.931 7 -11168539.623 6  23195108.063    23195101.102          45.300
        41.800    23195101.281
 -25663986.975 8 -19804266.496 8  21000748.211    21000743.305          50.600
        50.600    21000743.773
  -3686271.283 6  -3635764.308 6  25096302.617    25096300.172          37.700
        39.700    25096300.469
 -38531361.292 5 -29987943.970 5  25728935.023                          33.400
        32.800    25728940.668
 -16911467.440 7 -13193620.934 7  22685768.500    22685763.945          45.200
        44.600    22685763.887
 -18914863.402 7 -15536936.442 8  22270557.188    22270551.809          47.500
        48.200    22270552.164
 -26494068.064 8 -19761955.15247  20771546.695    20771536.102          51.400
        42.600
 -25884854.039 8 -13786414.55446  20975397.703    20975388.691          50.300
        39.500
 16  1  1  1  2 30.0000000  0 10G32G06G07G03G27G01G26G09G23G16
 -14111672.196 7  -6178493.51044  23410609.570    23410604.430          42.400
        27.900
  -6863046.423 6  -5331522.460 6  24679771.070    24679770.383          37.700
        39.800    24679770.914
 -13628216.210 7 -11221746.408 6  23182114.180    23182107.570          45.300
        41.600    23182107.281
 -25598178.675 8 -19752987.305 8  21013271.266    21013266.004          49.000
        50.900    21013266.594
  -3759676.731 5  -3692963.135 6  25082333.344    25082331.191          35.900
        39.700    25082332.602
 -41605012.190 5 -32382996.920 5  25743624.805                          31.000
        33.700    25743631.035
 -16843561.381 6 -13140707.113 7  22698690.258    22698686.172          41.500
        44.300    22698686.293
 -18984292.904 7 -15591037.239 7  22257345.500    22257340.063          47.600
        47.200    22257340.301
 -26524623.642 8 -19785764.63247  20765731.695    20765721.336          51.800
        42.900
 -25871891.628 8 -13776313.89746  20977864.211    20977855.199          51.300
        39.700
 16  1  1  1  3  0.0000000  0 10G32G06G07G03G27G01G26G09G23G16
 -14011821.181 6  -6100687.50944  23429610.406    23429605.383          41.500
        26.300
  -6847605.942 5  -5319490.823 6  24682709.023    24682708.863          35.700
        40.000    24682708.984
 -13696288.992 7 -11274789.940 6  23169159.664    23169153.230          45.700
        41.900    23169153.469
 -25531899.057 8 -19701340.853 8  21025883.828    21025879.098          50.800
        50.700    21025879.332
  -3833109.814 5  -3750183.523 6  25068359.016    25068358.035          33.400
        37.200    25068356.867
   -656880.04614                  25758266.805                          29.600

 -16775209.583 7 -13087445.967 7  22711697.188    22711692.984          45.500
        44.400    22711692.926
 -19053638.459 8 -15645072.634 8  22244149.219    22244143.957          48.100
        48.100    22244144.254
 -26554956.981 8 -19809400.93247  20759959.430    20759948.836          51.100
        42.800
 -25858272.157 8 -13765701.24846  20980455.484    20980446.707          50.800
        39.700
 16  1  1  1  3 30.0000000  0 10G32G06G07G03G27G01G26G09G23G16
 -13911814.541 7  -6022760.22744  23448640.859    23448636.305          42.600
        25.800
  -6831725.146 6  -5307116.079 6  24685731.336    24685730.648          39.200
        39.800    24685731.473
 -13764166.187 7 -11327681.073 7  23156242.984    23156236.551          45.200
        42.500    23156236.730
 -25465164.139 8 -19649339.620 8  21038582.883    21038578.211          51.500
        50.900    21038578.563
  -3906581.924 6  -3807434.231 6  25054378.328    25054376.234          36.100
        37.300    25054375.125
   -580186.924 5 -32271605.323 5  25772860.961                          32.400
        33.700    25772868.129
 -16706428.485 7 -13033850.288 7  22724785.914    22724781.828          45.700
        44.800    22724781.773
 -19122913.038 8 -15699052.713 8  22230966.313    22230961.051          48.100
        48.000    22230961.406
 -26585080.776 8 -19832873.96747  20754227.359    20754216.824          51.600
        42.100
 -25844010.204 8 -13754587.97346  20983169.617    20983160.957          51.900
        39.400
 16  1  1  1  4  0.0000000  0 10G32G06G07G03G27G01G26G09G23G16
 -13811635.518 7  -5944698.63144  23467704.258    23467699.527          42.800
        26.400
  -6815386.730 6  -5294384.746 6  24688840.180    24688839.668          39.200
        39.000    24688839.672
 -13831828.911 7 -11380405.103 7  23143367.508    23143360.723          46.000
        42.000    23143360.727
 -25397956.930 8 -19596970.366 8  21051372.063    21051367.156          51.000
        50.400    21051367.625
  -3980071.201 5  -3864698.257 6  25040392.711    25040391.730          34.200
        37.700    25040391.031
   -503733.04014 -32212031.22115  25787408.773                          24.600
        30.800    25787417.699
 -16637201.446 7 -12979907.130 7  22737959.625    22737955.246          45.200
        45.600    22737955.012
 -19192096.734 8 -15752961.980 7  22217801.453    22217795.781          48.100
        47.800    22217795.844
 -26614974.627 8 -19856167.82847  20748538.648    20748528.289          52.300
        42.000
 -25829087.553 8 -13742959.87946  20986009.375    20986000.480          50.600
        39.800
 16  1  1  1  4 30.0000000  0 10G32G06G07G03G27G01G26G09G23G16
 -13711304.408 6  -5866518.52144  23486796.922    23486791.367          41.600
        27.900
  -6798610.411 6  -5281312.225 6  24692032.688    24692031.590          38.200
        39.900    24692032.707
 -13899294.922 7 -11432975.866 6  23130528.977    23130522.602          44.000
        41.900    23130522.840
 -25330297.665 8 -19544248.857 8  21064247.078    21064241.875          50.000
        50.700    21064242.406
  -4053592.981 5  -3921987.672 6  25026400.109    25026401.063          33.700
        39.200    25026400.773
   -427538.461 5 -32152659.153 5  25801909.898                          31.800
        32.400    25801916.949
 -16567549.094 7 -12925632.541 7  22751213.438    22751209.762          44.900
        45.100    22751209.531
 -19261206.643 7 -15806813.758 7  22204649.945    22204644.508          47.200
        47.900    22204644.746
 -26644655.617 8 -19879295.83247  20742890.203    20742879.961          52.000
        42.200
 -25813522.922 8 -13730831.55046  20988971.070    20988962.176          51.000
        39.400
 16  1  1  1  5  0.0000000  0  9G32G06G07G03G27G26G09G23G16
 -13610806.975 6  -5788208.79744  23505921.172    23505915.676          41.700
        25.700
  -6781381.445 6  -5267886.961 6  24695311.445    24695310.055          38.800
        39.600    24695310.527
 -13966547.970 7 -11485380.675 7  23117730.617    23117724.242          45.700
        42.600    23117724.246
 -25262171.992 8 -19491163.911 8  21077211.016    21077206.051          50.500
        50.800    21077206.402
  -4127128.010 5  -3979287.351 6  25012408.008    25012407.438          34.700
        38.900    25012406.973
 -16497457.373 7 -12871015.585 7  22764551.539    22764547.395          44.100
        44.500    22764547.277
 -19330225.322 7 -15860594.445 7  22191516.305    22191510.633          47.600
        47.800    22191510.871
 -26674105.721 8 -19902243.91347  20737285.977    20737275.676          52.100
        42.100
 -25797300.437 8 -13718190.61246  20992057.969    20992048.840          51.100
        40.200
 16  1  1  1  5 30.0000000  0 10G32G06G07G03G08G27G26G09G23G16
 -13510156.531 6  -5709779.86544  23525074.109    23525068.906          41.300
        25.700
  -6763712.641 6  -5254118.979 6  24698673.922    24698672.238          38.400
        38.900    24698672.125
 -14033599.273 7 -11537628.264 7  23104970.938    23104964.621          45.900
        42.600    23104964.801
 -25193593.046 8 -19437725.773 8  21090261.422    21090256.574          48.800
        50.600    21090256.750
   -388046.184 5   -345043.928 5  25700520.211                          35.300
        34.300    25700520.523
  -4200684.693 5  -4036603.853 6  24998411.766    24998409.613          35.600
        37.600    24998408.152
 -16426939.856 6 -12816066.852 7  22777971.055    22777966.441          40.900
        44.500    22777966.324
 -19399162.869 8 -15914311.916 7  22178397.750    22178392.313          48.200
        47.800    22178392.375
 -26703334.835 8 -19925019.80647  20731724.117    20731713.055          51.000
        42.100
 -25780432.415 8 -13705046.66346  20995267.922    20995259.145          51.400
        40.000
 16  1  1  1  6  0.0000000  0 10G32G06G07G03G08G27G26G09G23G16
 -13409351.251 6  -5631230.27144  23544256.734    23544251.004          41.000
        25.000
  -6745601.712 6  -5240006.499 6  24702119.617    24702118.637          38.800
        39.700    24702118.641
 -14100445.157 7 -11589715.809 7  23092251.320    23092244.125          43.300
        42.500    23092244.305
 -25124559.086 8 -19383933.106 8  21103397.906    21103393.234          50.300
        50.400    21103393.586
   -458385.328 5   -399852.600 5  25687134.906                          35.300
        32.700    25687136.273
  -4274256.437 5  -4093932.189 6  24984410.297    24984408.262          35.800
        38.300    24984407.211
 -16355995.063 7 -12760785.156 7  22791471.211    22791466.715          45.300
        45.100    22791466.598
 -19468014.306 7 -15967962.284 7  22165295.289    22165289.969          45.500
        47.600    22165289.973
 -26732337.881 8 -19947619.53446  20726203.930    20726193.805          52.100
        41.900
 -25762915.785 8 -13691397.31046  20998601.078    20998592.301          50.700
        40.200
 16  1  1  1  6 30.0000000  0 10G32G06G07G03G08G27G26G09G23G16
 -13308393.729 7  -5552562.04944  23563467.859    23563462.777          42.800
        25.400
  -6727050.772 6  -5225551.148 6  24705649.813    24705649.477          38.300
        40.000    24705649.715
 -14167086.178 7 -11641643.733 7  23079569.672    23079562.711          44.500
        42.700    23079562.832
 -25055072.529 8 -19329787.745 8  21116620.750    21116615.961          50.500
        50.600    21116616.313
   -244216.18315                  25673708.508                          35.500

  -4347840.665 5  -4151270.294 6  24970408.422    24970405.684          35.000
        39.400    24970405.570
 -16284625.840 7 -12705172.738 7  22805051.938    22805048.262          46.400
        45.100    22805048.441
 -19536779.029 7 -16021545.092 8  22152210.180    22152204.449          46.200
        48.000    22152204.336
 -26761113.651 8 -19970042.16847  20720729.094    20720718.852          51.900
        42.700
 -25744751.727 8 -13677243.46646  21002057.906    21002048.836          50.700
        39.400
 16  1  1  1  7  0.0000000  0  9G32G06G07G03G27G26G09G23G16
 -13207286.081 7  -5473776.85444  23582708.742    23582702.953          42.100
        24.300
  -6708061.388 6  -5210754.159 6  24709263.148    24709262.227          37.900
        40.100    24709262.875
 -14233521.859 7 -11693411.646 7  23066926.836    23066920.051          43.400
        43.200    23066920.465
 -24985135.359 8 -19275291.256 8  21129929.344    21129924.965          50.900
        51.100    21129925.141
  -4421434.526 6  -4208615.880 6  24956402.461    24956400.953          36.500
        38.800    24956400.254
 -16212834.528 7 -12649231.411 7  22818713.359    22818709.215          45.600
        44.900    22818708.922
 -19605455.770 7 -16075059.351 7  22139141.086    22139135.648          45.200
        47.600    22139136.063
 -26789660.838 8 -19992286.69347  20715297.406    20715286.109          51.800
        42.200
 -25725940.708 8 -13662585.49546  21005637.500    21005628.723          49.700
        39.500
 16  1  1  1  7 30.0000000  0 11G32G06G07G03G08G27G26G09G30G23G16
 -13106029.745 7  -5394875.78644  23601977.078    23601971.699          42.800
        25.300
  -6688634.551 6  -5195616.309 6  24712959.859    24712958.879          37.800
        39.900    24712959.117
 -14299751.654 7 -11745019.119 7  23054323.688    23054316.844          45.700
        43.000    23054316.965
 -24914749.018 8 -19220444.766 8  21143323.328    21143318.305          51.300
        49.800    21143318.656
   -130315.755 5                  25646722.914                          30.700

  -4495034.265 6  -4265966.101 6  24942398.227    24942394.609          37.700
        38.600    24942394.848
 -16140622.869 7 -12592962.540 7  22832455.094    22832450.539          45.200
        44.500    22832450.598
 -19674042.808 7 -16128503.717 8  22126089.594    22126083.629          47.200
        48.200    22126083.926
   -236142.295 6   -182340.383 5  25765162.289                          38.600
        35.200    25765160.727
 -26817977.529 8 -20014351.60847  20709907.594    20709897.879          52.400
        42.200
 -25706483.039 8 -13647423.64446  21009339.805    21009331.145          49.900
        39.000
 16  1  1  1  8  0.0000000  0 10G32G06G07G03G27G26G09G30G23G16
 -13004627.336 7  -5315860.89744  23621273.219    23621267.430          42.800
        24.700
  -6668772.648 6  -5180139.453 6  24716739.555    24716738.340          38.200
        39.800    24716738.754
 -14365776.070 7 -11796466.572 7  23041760.008    23041752.930          42.400
        43.000    23041753.168
 -24843916.150 8 -19165250.334 8  21156802.281    21156797.434          50.800
        50.300    21156797.785
  -4568637.741 6  -4323319.265 6  24928390.742    24928388.590          36.600
        38.400    24928388.301
 -16067993.812 7 -12536368.422 7  22846276.109    22846271.203          45.700
        44.600    22846271.203
 -19742539.533 7 -16181877.719 8  22113054.625    22113049.543          45.600
        48.100    22113049.602
   -118308.574 5   -206965.146 5  25748608.859                          35.100
        35.800    25748609.992
 -26846062.803 8 -20036236.20447  20704563.898    20704552.895          51.400
        42.200
 -25686380.183 8 -13631759.06346  21013165.445    21013156.082          49.900
        39.300
 16  1  1  1  8 30.0000000  0 10G32G06G07G03G08G27G26G09G23G16
 -12903082.596 7  -5236735.10343  23640596.547    23640590.875          42.700
        23.000
  -6648478.631 6  -5164325.897 6  24720601.445    24720600.348          38.100
        40.200    24720600.820
 -14431596.668 7 -11847755.198 7  23029233.820    23029227.621          45.100
        43.100    23029227.742
 -24772640.230 8 -19109710.661 8  21170365.758    21170361.086          51.000
        50.200    21170361.438
   -121900.306 6   -515732.841 6  25619568.391                          37.300
        37.200    25619569.055
  -4642243.356 5  -4380674.126 6  24914382.641    24914381.309          35.900
        39.700    24914381.547
 -15994951.227 7 -12479452.068 7  22860175.531    22860170.801          45.500
        44.400    22860170.977
 -19810946.214 7 -16235181.569 7  22100037.438    22100031.824          47.800
        47.600    22100032.121
 -26873916.454 8 -20057940.31447  20699263.234    20699252.523          50.000
        42.600
 -25665634.252 8 -13615593.37446  21017113.219    21017104.324          50.300
        39.300
 16  1  1  1  9  0.0000000  0 10G32G06G07G03G27G26G09G30G23G16
 -12801391.718 7  -5157495.44944  23659947.664    23659941.875          43.000
        25.500
  -6627748.546 6  -5148172.557 6  24724546.227    24724545.656          37.500
        40.300    24724546.070
 -14497207.514 7 -11898880.392 7  23016748.375    23016742.117          43.600
        43.000    23016741.945
 -24700917.712 8 -19053822.997 8  21184014.109    21184009.848          49.700
        50.000    21184010.379
  -4715842.356 6  -4438023.838 6  24900378.367    24900376.332          37.500
        38.700    24900376.219
 -15921491.832 6 -12422210.933 7  22874153.891    22874149.453          41.800
        44.400    22874149.453
 -19879255.908 7 -16288409.845 8  22087038.445    22087033.242          46.900
        48.300    22087033.480
    -67594.811 6   -320713.408 6  25715565.539                          37.300
        36.700    25715567.199
 -26901531.209 8 -20079458.26547  20694008.461    20693998.102          51.100
        42.400
 -25644240.559 8 -13598922.94146  21021184.391    21021175.145          49.900
        39.800
 16  1  1  1  9 30.0000000  0 11G32G06G07G03G08G27G26G09G30G23G16
 -12699566.298 7  -5078150.94843  23679324.602    23679318.695          42.800
        23.600
  -6606593.429 6  -5131688.025 6  24728571.539    24728571.320          37.800
        39.400    24728571.324
 -14562617.994 7 -11949849.456 7  23004300.961    23004294.586          43.900
        43.300    23004294.883
 -24628759.965 8 -18997596.197 8  21197745.484    21197740.754          50.500
        50.000    21197741.047
     16696.010 4   -597769.077 6  25592251.898                          29.600
        37.200    25592253.793
  -4789441.169 6  -4495373.437 6  24886373.141    24886370.695          37.900
        38.400    24886371.051
 -15847627.306 7 -12364654.099 7  22888210.008    22888205.863          45.100
        44.600    22888205.926
 -19947476.822 7 -16341568.941 7  22074056.719    22074050.930          47.600
        47.900    22074051.227
   -154252.525 4   -388238.047 6  25699074.320                          26.400
        37.100    25699076.098
 -26928915.153 8 -20100796.36747  20688797.453    20688786.508          52.300
        42.600
 -25622209.326 8 -13581755.71546  21025377.156    21025367.559          50.300
        39.800
 16  1  1  1 10  0.0000000  0 11G32G06G07G03G08G27G26G09G30G23G16
 -12597599.916 7  -4998696.60444  23698727.859    23698722.539          43.100
        26.000
  -6585006.733 6  -5114867.195 6  24732679.047    24732678.945          37.300
        38.900    24732678.715
 -14627819.592 7 -12000655.763 7  22991893.633    22991887.082          44.300
        42.700    22991887.262
 -24556160.761 8 -18941025.398 8  21211560.508    21211555.543          50.300
        50.400    21211556.129
    -55392.140 6   -653940.974 6  25578532.625                          36.200
        37.200    25578534.871
  -4863028.450 6  -4552714.052 6  24872369.523    24872367.137          37.300
        38.600    24872366.906
 -15773351.796 7 -12306777.021 7  22902343.961    22902340.109          44.700
        44.600    22902339.938
 -20015599.372 8 -16394651.390 7  22061093.289    22061087.324          48.400
        47.500    22061087.270
    105492.632 5   -437217.400 6  25682606.719                          35.900
        38.200    25682605.566
 -26956058.671 8 -20121947.12047  20683631.922    20683620.801          51.900
        42.700
 -25599533.222 8 -13564085.99546  21029691.734    21029682.547          49.300
        39.500
 16  1  1  1 10 30.0000000  0 11G32G06G07G03G08G27G26G09G30G23G16
 -12495494.763 7  -4919134.12944  23718158.203    23718152.180          42.500
        25.200
  -6562990.016 6  -5097711.288 6  24736869.063    24736868.609          37.700
        39.400    24736868.730
 -14692812.667 7 -12051299.589 7  22979526.016    22979518.938          45.000
        43.000    22979519.176
 -24483122.173 8 -18884112.223 8  21225459.367    21225454.227          50.200
        49.800    21225454.637
   -127686.044 4   -710273.267 5  25564777.102                          27.300
        35.100    25564778.645
  -4936601.201 6  -4610043.344 6  24858369.227    24858367.191          37.400
        39.200    24858366.902
 -15698667.647 7 -12248581.515 7  22916555.969    22916551.824          42.700
        44.600    22916551.945
 -20083622.252 7 -16447656.173 8  22048149.039    22048143.133          46.400
        48.500    22048143.078
    197323.272 6   -454740.938 5  25666157.281                          36.900
        35.900    25666156.422
 -26982960.073 8 -20142909.21047  20678512.852    20678501.965          52.000
        42.300
 -25576213.176 8 -13545914.48246  21034129.305    21034120.527          49.300
        39.500
 16  1  1  1 11  0.0000000  0 10G32G06G07G03G27G26G09G30G23G16
 -12393259.086 7  -4839469.94544  23737612.875    23737607.379          42.500
        24.600
  -6540551.315 6  -5080226.552 6  24741139.813    24741138.363          38.900
        39.900    24741138.895
 -14757603.301 7 -12101785.670 7  22967196.680    22967189.660          42.700
        42.700    22967189.723
 -24409652.554 8 -18826863.183 8  21239440.297    21239435.156          50.300
        50.100    21239435.684
  -5010162.643 6  -4667363.842 6  24844370.703    24844368.492          36.400
        38.000    24844368.086
 -15623583.448 7 -12190074.278 7  22930843.898    22930839.227          43.400
        44.000    22930839.344
 -20151550.428 7 -16500587.153 8  22035222.516    22035216.902          46.300
        48.800    22035216.730
    242903.147 6   -495978.797 5  25649729.867                          36.400
        35.400    25649727.719
 -27009624.327 8 -20163686.50647  20673439.094    20673427.973          51.000
        42.800
 -25552256.022 8 -13527246.52246  21038688.328    21038679.609          49.700
        39.300
 16  1  1  1 11 30.0000000  0 10G32G06G07G03G08G27G26G09G23G16
 -12290894.860 6  -4759705.57244  23757091.758    23757086.379          41.100
        25.200
  -6517692.232 5  -5062414.257 6  24745488.789    24745488.395          34.100
        38.700    24745488.691
 -14822191.169 7 -12152113.770 7  22954905.961    22954898.941          44.900
        43.600    22954899.063
 -24335753.927 8 -18769279.838 8  21253502.313    21253497.641          49.800
        50.100    21253498.051
    245399.590 6   -779682.170 6  25537142.711                          36.600
        39.000    25537143.961
  -5083709.619 6  -4724673.091 6  24830374.266    24830371.938          36.400
        38.400    24830371.824
 -15548101.620 7 -12131257.200 7  22945207.484    22945203.340          45.000
        44.300    22945203.520
 -20219382.576 7 -16553443.300 8  22022314.813    22022308.613          47.000
        49.000    22022309.203
 -27036049.600 8 -20184277.57847  20668410.328    20668399.090          51.800
        42.700
 -25527662.723 8 -13508082.85146  21043368.328    21043359.609          48.800
        39.500
 16  1  1  1 12  0.0000000  0 11G32G06G07G03G08G27G26G09G30G23G16
 -12188398.364 7  -4679838.14744  23776596.469    23776590.797          42.300
        25.000
  -6494408.831 6  -5044271.317 6  24749920.086    24749918.578          37.900
        39.400    24749919.344
 -14886570.508 7 -12202279.376 7  22942654.805    22942647.785          44.400
        43.100    22942647.965
 -24261422.608 8 -18711359.344 8  21267647.461    21267642.379          50.300
        50.000    21267642.789
    372568.543 5   -827325.664 5  25523265.773                          34.800
        33.600    25523265.559
  -5157233.218 6  -4781964.129 6  24816384.328    24816380.652          37.100
        38.000    24816381.242
 -15472218.697 7 -12072127.593 7  22959647.688    22959643.367          45.100
        44.500    22959643.133
 -20287111.578 7 -16606219.062 8  22009425.508    22009419.953          47.800
        48.600    22009420.133
    385079.436 6   -566052.108 6  25616933.656                          38.100
        37.700    25616933.148
 -27062228.454 8 -20204676.63347  20663428.781    20663417.543          53.000
        42.400
 -25502428.776 8 -13488419.98446  21048170.250    21048161.180          50.300
        39.100
 16  1  1  1 12 30.0000000  0 10G32G06G07G03G08G27G26G09G23G16
 -12085774.732 6  -4599871.64344  23796124.461    23796119.082          40.900
        24.900
  -6470705.798 5  -5025801.380 6  24754430.969    24754428.230          35.500
        40.100    24754429.113
 -14950744.372 7 -12252284.885 7  22930442.672    22930436.004          44.900
        43.200    22930436.184
 -24186663.794 8 -18653105.717 8  21281873.508    21281868.719          50.000
        49.800    21281869.129
    299458.511 6   -884293.996 6  25509353.680                          36.700
        37.700    25509353.875
  -5230733.654 6  -4839237.083 6  24802397.992    24802394.434          37.300
        37.700    24802394.496
 -15395940.162 7 -12012689.714 7  22974163.031    22974158.242          45.000
        45.100    22974158.594
 -20354739.190 8 -16658915.805 8  21996556.461    21996550.906          48.600
        48.300    21996551.027
 -27088162.633 8 -20224885.03247  20658493.313    20658482.602          51.900
        42.700
 -25476558.256 8 -13468261.06746  21053093.055    21053083.750          49.300
        39.200
 16  1  1  1 13  0.0000000  0 11G32G06G07G03G08G27G26G09G30G23G16
 -11983025.599 6  -4519807.36044  23815677.188    23815671.750          40.100
        26.400
  -6446584.540 6  -5007005.547 6  24759020.180    24759018.789          36.900
        39.400    24759019.496
 -15014712.552 7 -12302130.125 7  22918270.141    22918262.594          45.600
        43.400    22918262.891
 -24111479.208 8 -18594520.334 8  21296180.758    21296176.027          50.300
        49.800    21296176.617
    527832.289 5   -934433.989 5  25495403.508                          35.800
        35.400    25495400.363
  -5304207.198 6  -4896489.109 6  24788414.656    24788412.387          37.000
        37.900    24788412.508
 -15319268.026 7 -11952945.140 7  22988752.813    22988748.727          45.100
        44.600    22988748.906
 -20422263.680 8 -16711532.204 8  21983707.031    21983701.652          48.500
        48.300    21983701.891
    431990.372 5                  25584224.383                          32.000

 -27113850.273 8 -20244901.32347  20653605.195    20653594.074          52.400
        42.900
 -25450051.855 8 -13447606.68046  21058136.789    21058127.777          50.000
        39.500
 16  1  1  1 13 30.0000000  0 10G32G06G07G03G08G27G26G09G23G16
 -11880153.437 6  -4439647.19744  23835252.750    23835247.668          41.900
        24.800
  -6422047.280 6  -4987885.586 6  24763689.453    24763688.238          36.400
        39.200    24763689.180
 -15078475.042 7 -12351815.104 7  22906136.563    22906129.426          44.700
        43.100    22906129.430
 -24035871.416 8 -18535605.166 8  21310568.469    21310563.328          50.300
        49.500    21310563.855
    454329.750 6   -991708.161 5  25481416.844                          36.500
        32.700    25481414.461
  -5377651.323 6  -4953718.174 6  24774439.859    24774436.535          37.600
        38.300    24774437.242
 -15242205.143 7 -11892896.083 7  23003418.055    23003413.207          45.300
        44.700    23003413.324
 -20489684.204 8 -16764067.589 8  21970877.344    21970871.555          48.800
        48.500    21970871.676
 -27139290.115 8 -20264724.50547  20648764.141    20648753.313          52.300
        42.300
 -25422911.004 8 -13426457.91546  21063301.656    21063292.293          48.200
        39.300
 16  1  1  1 14  0.0000000  0 11G32G06G07G03G08G27G26G09G30G23G16
 -11777161.682 6  -4359393.85944  23854851.516    23854846.551          41.500
        24.700
  -6397097.170 5  -4968443.911 6  24768436.852    24768436.516          35.800
        40.200    24768437.398
 -15142033.155 7 -12401340.825 7  22894041.750    22894034.320          43.900
        43.200    22894034.617
 -23959843.962 8 -18476363.015 8  21325036.000    21325031.094          50.000
        49.400    21325031.621
    380632.871 5  -1049133.801 6  25467393.703                          35.600
        36.700    25467391.613
  -5451064.267 6  -5010922.927 6  24760468.672    24760466.402          37.000
        37.900    24760466.172
 -15164755.233 7 -11832545.461 7  23018156.109    23018151.145          45.000
        44.300    23018151.262
 -20557000.666 8 -16816521.884 8  21958067.242    21958062.039          48.000
        48.300    21958062.219
    537861.481 5   -764061.390 6  25551599.219                          34.300
        38.400    25551599.648
 -27164482.055 8 -20284354.53547  20643970.102    20643959.156          52.300
        42.900
 -25395138.057 8 -13404816.61246  21068586.320    21068577.016          49.200
        38.600
 16  1  1  1 14 30.0000000  0 11G32G06G07G03G08G27G26G09G30G23G16
 -11674052.419 7  -4279048.94244  23874472.867    23874467.313          42.000
        24.100
  -6371736.015 6  -4948681.942 6  24773263.523    24773261.840          36.100
        40.400    24773262.547
 -15205386.991 7 -12450707.382 7  22881986.180    22881978.867          44.600
        43.100    22881978.930
 -23883399.037 8 -18416795.567 8  21339583.031    21339578.184          50.500
        49.600    21339578.301
    306744.125 5  -1106708.949 5  25453329.805                          33.100
        35.400    25453329.473
  -5524442.885 6  -5068100.925 6  24746505.445    24746502.590          38.000
        37.700    24746502.594
 -15086920.824 7 -11771895.228 7  23032967.578    23032962.789          44.700
        44.300    23032962.965
 -20624211.862 8 -16868894.154 8  21945277.391    21945271.777          48.300
        48.100    21945271.898
    452309.933 5   -830724.392 6  25535318.383                          35.800
        37.100    25535318.109
 -27189424.570 8 -20303790.20947  20639223.727    20639212.430          53.100
        42.500
 -25366734.193 8 -13382683.68446  21073991.430    21073982.125          49.400
        39.400
 16  1  1  1 15  0.0000000  0 11G32G06G07G03G08G27G26G09G30G23G16
 -11570822.383 6  -4198609.91843  23894116.289    23894111.383          41.700
        23.800
  -6345960.433 5  -4928597.064 6  24778168.172    24778166.898          33.200
        39.700    24778167.605
 -15268531.571 7 -12499910.884 7  22869969.719    22869962.699          44.300
        43.200    22869962.996
 -23806533.482 8 -18356900.331 8  21354209.906    21354205.410          50.500
        50.000    21354205.824
    232670.500 6  -1164428.188 6  25439234.758                          36.900
        38.600    25439233.957
  -5597778.913 6  -5125245.705 6  24732549.969    24732546.996          37.500
        37.500    24732546.707
 -15008699.007 7 -11710943.114 7  23047852.336    23047847.488          45.400
        43.900    23047847.430
 -20691311.069 8 -16921179.165 8  21932509.219    21932503.547          48.900
        48.700    21932503.785
  -1208544.236 5  -2124895.974 6  25519059.906                          33.400
        36.100    25519059.867
 -27214110.949 8 -20323026.29047  20634526.078    20634514.840          52.800
        42.700
 -25337695.152 8 -13360055.81446  21079517.742    21079508.496          49.800
        39.300
 16  1  1  1 15 30.0000000  0 11G32G06G07G03G08G27G26G09G30G23G16
 -11467482.612 6  -4118085.39343  23913781.219    23913776.371          41.700
        23.400
  -6319781.280 5  -4908197.730 6  24783150.008    24783149.379          33.500
        40.200    24783149.734
 -15331475.955 7 -12548958.373 7  22857991.859    22857984.371          44.900
        43.600    22857984.434
 -23729258.587 8 -18296686.138 8  21368915.039    21368910.074          50.300
        49.800    21368910.543
    158406.042 5  -1222296.163 6  25425102.336                          33.600
        37.300    25425101.301
  -5671078.206 6  -5182361.816 6  24718601.773    24718598.566          38.400
        38.400    24718598.453
 -14930101.279 7 -11649698.088 7  23062809.117    23062804.094          45.100
        44.000    23062804.211
 -20758305.969 8 -16973382.894 8  21919760.188    21919754.105          48.600
        49.000    21919754.520
  -1293869.210 5  -2191382.508 5  25502822.250                          33.000
        35.200    25502822.094
 -27238548.460 8 -20342068.45047  20629875.445    20629864.676          53.200
        42.600
 -25308031.430 8 -13336941.17746  21085162.391    21085153.379          49.600
        39.300
 16  1  1  1 16  0.0000000  0 11G32G06G07G03G08G27G26G09G30G23G16
 -11364027.421 7  -4037470.92744  23933468.992    23933463.379          42.000
        24.700
  -6293192.474 6  -4887479.188 6  24788209.664    24788208.918          37.000
        40.400    24788209.625
 -15394211.857 7 -12597843.415 7  22846053.211    22846046.367          44.300
        42.800    22846046.957
 -23651568.656 8 -18236148.546 8  21383698.867    21383694.137          48.700
        49.300    21383694.313
     83960.712 6  -1280304.998 6  25410935.313                          36.000
        36.600    25410935.098
  -5744329.786 6  -5239440.750 6  24704662.039    24704659.242          37.200
        38.900    24704659.129
 -14851122.174 6 -11588155.880 7  23077838.383    23077833.652          41.600
        44.100    23077833.535
 -20825187.339 8 -17025498.167 8  21907032.984    21907026.961          49.600
        48.900    21907027.082
  -1378117.756 5  -2246396.571 6  25486608.750                          32.200
        36.000    25486607.188
 -27262727.844 8 -20360909.48047  20625274.242    20625263.590          53.400
        43.300
 -25277736.243 8 -13313334.48746  21090927.453    21090917.855          48.600
        39.100
 16  1  1  1 16 30.0000000  0 11G32G06G07G03G08G27G26G09G30G23G16
 -11260462.984 7  -3956771.34643  23953176.352    23953170.914          42.100
        22.900
  -6266200.119 5  -4866446.199 6  24793345.945    24793345.902          35.200
        40.400    24793346.316
 -15456743.341 7 -12646569.166 7  22834153.953    22834146.582          44.900
        43.300    22834147.172
 -23573470.061 8 -18175292.510 8  21398560.359    21398555.980          50.200
        49.300    21398556.395
      9332.824 6  -1338456.202 6  25396733.211                          36.900
        38.700    25396733.348
  -5817534.817 6  -5296483.422 6  24690731.820    24690728.613          37.700
        38.800    24690728.617
 -14771768.269 7 -11526321.627 7  23092938.523    23092933.793          43.700
        43.900    23092933.734
 -20891957.847 8 -17077527.043 8  21894326.625    21894320.777          48.400
        49.000    21894321.016
  -1463211.513 5  -2312702.976 6  25470413.656                          31.200
        36.700    25470414.438
 -27286651.472 8 -20379551.20347  20620721.695    20620710.750          53.100
        42.800
 -25246814.979 8 -13289239.93746  21096811.234    21096802.750          49.500
        38.900
 16  1  1  1 17  0.0000000  0 11G32G06G07G03G08G27G26G09G30G23G16
 -11156789.305 6  -3875986.65343  23972904.695    23972899.316          41.200
        22.600
  -6238803.997 6  -4845098.567 6  24798560.133    24798558.918          36.500
        40.500    24798559.215
 -15519068.551 7 -12695134.184 7  22822294.102    22822286.555          44.200
        43.400    22822286.793
 -23494963.002 8 -18114118.180 8  21413499.945    21413494.980          49.500
        49.300    21413495.273
    -65472.957 5  -1396745.992 6  25382497.531                          33.400
        38.000    25382497.141
  -5890688.097 6  -5353485.762 6  24676811.000    24676807.617          37.100
        39.600    24676807.855
 -14692040.039 7 -11464195.681 7  23108110.297    23108105.449          43.600
        43.900    23108105.391
 -20958614.143 8 -17129466.921 8  21881642.383    21881636.418          48.300
        48.600    21881636.949
   -584941.613 5  -2366028.500 6  25454243.875                          32.500
        37.500    25454244.422
 -27310316.130 8 -20397991.14247  20616218.750    20616207.512          53.000
        42.700
 -25215266.884 8 -13264656.95646  21102814.680    21102806.195          48.800
        39.000
 16  1  1  1 17 30.0000000  0 11G32G06G07G03G08G27G26G09G30G23G16
 -11053007.561 6  -3795117.74643  23992653.773    23992648.219          41.400
        22.500
  -6211005.356 6  -4823437.285 6  24803849.430    24803848.332          36.800
        39.600    24803848.336
 -15581186.843 7 -12743537.962 7  22810472.898    22810465.762          44.600
        42.900    22810466.176
 -23416048.942 8 -18052626.683 8  21428516.742    21428511.660          49.300
        49.400    21428512.012
   -140453.646 6  -1455172.061 6  25368230.727                          36.500
        37.100    25368228.930
  -5963785.747 6  -5410444.745 6  24662900.648    24662897.441          37.000
        38.700    24662897.563
 -14611939.181 7 -11401779.382 7  23123352.930    23123348.375          42.200
        44.200    23123348.609
 -21025154.047 8 -17181316.097 8  21868980.563    21868974.129          48.700
        48.800    21868974.250
   -669800.760 5  -2432152.048 5  25438096.234                          35.700
        35.900    25438094.730
 -27333719.096 8 -20416227.16547  20611765.047    20611753.809          52.700
        43.100
 -25183092.410 8 -13239585.88046  21108937.055    21108927.984          49.100
        39.000
 16  1  1  1 18  0.0000000  0 11G32G06G07G03G08G27G26G09G30G23G16
 -10949126.335 6  -3714171.32843  24012421.539    24012416.219          41.600
        22.800
  -6182812.397 5  -4801468.758 6  24809214.266    24809213.754          35.800
        40.100    24809214.461
 -15643104.430 7 -12791785.353 7  22798690.805    22798682.848          45.100
        43.200    22798683.145
 -23336736.459 8 -17990824.723 8  21443609.469    21443604.621          48.600
        49.700    21443605.031
   -215613.516 6  -1513737.758 5  25353928.078                          38.700
        34.600    25353925.520
  -6036830.934 6  -5467362.864 6  24649000.469    24648997.027          36.900
        39.000    24648997.676
 -14531474.508 6 -11339079.591 7  23138664.758    23138660.613          41.100
        43.800    23138660.676
 -21091582.421 8 -17233078.367 8  21856339.461    21856333.672          48.700
        48.600    21856333.500
   -754547.802 5  -2498188.316 5  25421969.555                          35.200
        35.200    25421967.641
 -27356865.193 8 -20434263.01747  20607360.813    20607349.809          52.900
        42.700
 -25150298.998 8 -13214032.51246  21115177.602    21115168.355          48.300
        39.000
 16  1  1  1 18 30.0000000  0 11G32G06G07G03G08G27G26G09G30G23G16
 -10845141.113 6  -3633143.85143  24032209.008    24032203.867          41.100
        22.200
  -6154220.516 5  -4779189.382 6  24814655.352    24814654.723          35.500
        40.400    24814655.254
 -15704815.083 7 -12839871.497 7  22786947.352    22786940.039          45.800
        43.200    22786940.219
 -23257021.449 8 -17928709.145 8  21458778.602    21458773.637          49.000
        49.500    21458774.223
   -290943.189 6  -1572435.851 5  25339592.516                          38.700
        35.100    25339589.547
  -6109814.164 6  -5524232.697 6  24635112.164    24635109.074          37.400
        39.500    24635108.785
 -14450642.007 7 -11276093.185 7  23154047.008    23154042.336          43.400
        44.300    23154042.043
 -21157891.424 8 -17284747.613 8  21843721.023    21843714.766          48.000
        48.400    21843715.121
   -839175.633 5  -2564131.687 6  25405865.148                          35.000
        38.000    25405864.289
 -27379746.474 8 -20452092.51647  20603006.422    20602995.359          51.700
        43.100
 -25116881.688 7 -13187992.99546  21121536.656    21121527.645          47.900
        38.500
 16  1  1  1 19  0.0000000  0 11G32G06G07G03G08G27G26G09G30G23G16
 -10741056.431 6  -3552038.87343  24052016.125    24052010.512          41.300
        22.200
  -6125234.150 5  -4756602.616 6  24820169.781    24820170.324          34.800
        39.600    24820170.270
 -15766321.090 7 -12887798.173 7  22775243.266    22775235.836          45.600
        43.600    22775236.016
 -23176908.566 8 -17866283.516 8  21474023.359    21474019.156          49.100
        49.500    21474019.570
   -366442.508 6  -1631266.097 5  25325225.891                          38.600
        35.900    25325222.395
  -6182734.735 6  -5581053.721 6  24621235.680    24621232.707          36.200
        40.500    24621232.828
 -14369446.576 7 -11212823.984 7  23169498.180    23169493.156          42.600
        43.700    23169493.215
 -21224082.074 8 -17336324.640 8  21831125.109    21831119.145          48.600
        49.300    21831119.617
   -923686.248 5  -2629983.633 6  25389781.070    25389778.391          31.200
        37.600    25389780.973
 -27402364.093 8 -20469716.57047  20598702.125    20598691.648          52.200
        43.000
 -25082844.300 8 -13161470.29246  21128013.500    21128004.664          49.900
        38.500
 16  1  1  1 19 30.0000000  0 11G32G06G07G03G08G27G26G09G30G23G16
 -10636874.363 6  -3470858.02143  24071840.891    24071835.512          40.800
        22.200
  -6095855.309 5  -4733710.008 6  24825761.617    24825760.402          35.400
        38.600    24825760.348
 -15827622.316 7 -12935565.284 7  22763578.195    22763570.766          45.800
        43.800    22763571.063
 -23096400.080 8 -17803549.616 8  21489343.922    21489338.957          48.500
        49.100    21489339.309
  -2017529.339 6  -2917826.878 5  25310825.609                          37.700
        34.400    25310822.875
  -6255589.454 6  -5637823.458 6  24607371.094    24607368.238          36.600
        39.900    24607368.711
 -14287890.708 7 -11149273.925 7  23185016.945    23185012.625          42.500
        43.100    23185012.684
 -21290152.884 8 -17387808.273 8  21818552.188    21818546.457          48.400
        48.600    21818546.461
  -1008079.023 5  -2695743.795 6  25373721.695    25373721.301          33.700
        36.400    25373721.129
 -27424716.372 8 -20487133.86047  20594448.492    20594437.664          51.600
        43.000
 -25048188.460 8 -13134465.68146  21134608.578    21134599.039          48.500
        38.500
 16  1  1  1 20  0.0000000  0 11G32G06G07G03G08G27G26G09G30G23G16
 -10532596.998 6  -3389602.90243  24091684.406    24091678.324          41.400
        22.000
  -6066085.901 6  -4710513.033 6  24831427.328    24831425.645          36.200
        39.000    24831426.352
 -15888719.229 7 -12983173.182 7  22751951.414    22751944.043          45.500
        44.700    22751944.281
 -23015498.387 8 -17740509.340 8  21504739.156    21504734.250          48.000
        49.100    21504734.836
  -2093361.032 6  -2976916.263 6  25296396.992                          38.000
        37.400    25296393.496
  -6328375.248 6  -5694539.478 6  24593521.289    24593517.496          36.400
        39.900    24593517.324
 -14205976.961 7 -11085445.002 7  23200605.125    23200600.688          43.200
        43.700    23200600.629
 -21356102.495 8 -17439197.468 8  21806002.414    21805996.449          48.100
        48.700    21805996.277
  -1092353.340 5  -2761411.624 6  25357685.906    25357684.457          35.000
        37.800    25357684.168
 -27446801.696 8 -20504343.13047  20590245.922    20590235.211          52.300
        43.000
 -25012915.574 8 -13106980.25746  21141320.297    21141311.285          49.500
        38.400
 16  1  1  1 20 30.0000000  0 11G32G06G07G03G08G27G26G09G30G23G16
 -10428226.714 6  -3308275.39143  24111545.016    24111540.109          41.100
        21.700
  -6035928.263 6  -4687013.564 6  24837165.813    24837163.953          36.700
        39.600    24837164.953
 -15949611.904 7 -13030621.935 7  22740363.867    22740356.789          46.300
        43.700    22740356.969
 -22934206.041 8 -17677164.649 8  21520208.453    21520203.898          48.400
        49.300    21520204.430
  -2169355.767 6  -3036132.575 5  25281933.875                          36.300
        35.600    25281932.898
  -6401089.248 6  -5751199.578 6  24579682.906    24579680.168          36.500
        39.900    24579679.938
 -14123708.066 7 -11021339.335 7  23216260.734    23216255.414          43.200
        43.600    23216255.242
 -21421929.731 8 -17490491.317 8  21793476.023    21793469.707          48.100
        49.900    21793469.945
  -1176509.208 5  -2826987.123 6  25341670.117    25341670.133          35.300
        37.000    25341669.551
 -27468618.819 8 -20521343.42147  20586094.383    20586083.555          52.100
        43.300
 -24977027.009 8 -13079015.09046  21148149.828    21148140.523          48.000
        38.400
 16  1  1  1 21  0.0000000  0 11G32G06G07G03G08G27G26G09G30G23G16
 -10323765.270 6  -3226876.84343  24131423.531    24131417.859          40.600
        22.000
  -6005384.243 5  -4663213.032 6  24842977.914    24842977.285          35.800
        39.900    24842978.168
 -16010300.232 7 -13077911.464 7  22728814.969    22728807.949          46.200
        43.400    22728807.836
 -22852525.106 7 -17613517.164 8  21535751.883    21535747.094          47.600
        48.900    21535747.621
  -2245510.286 5  -3095473.531 6  25267438.727                          31.000
        37.700    25267439.098
  -6473728.049 6  -5807801.091 6  24565861.141    24565857.406          37.700
        39.800    24565857.703
 -14041086.282 6 -10956958.699 7  23231983.305    23231977.926          41.100
        43.700    23231978.457
 -21487632.814 8 -17541688.427 8  21780973.016    21780966.582          48.000
        49.300    21780966.820
  -1260545.674 5  -2892469.640 5  25325677.320    25325677.746          33.200
        35.300    25325676.871
 -27490165.623 8 -20538133.07947  20581994.086    20581983.023          51.900
        42.300
 -24940524.165 8 -13050571.25146  21155096.086    21155086.840          49.400
        38.800
 16  1  1  1 21 30.0000000  0 11G32G06G07G03G08G27G26G09G30G23G16
 -10219215.035 6  -3145409.07043  24151318.797    24151313.535          40.800
        22.500
  -5974456.030 5  -4639113.095 6  24848862.141    24848862.449          35.400
        38.700    24848862.219
 -16070784.757 7 -13125042.162 7  22717305.047    22717297.676          46.400
        43.700    22717297.914
 -22770458.299 8 -17549569.005 8  21551368.609    21551363.645          48.200
        49.600    21551364.289
  -2321822.662 6  -3154937.373 6  25252917.219                          36.200
        36.000    25252916.477
  -6546288.797 6  -5864341.781 6  24552053.359    24552048.805          38.700
        40.100    24552049.512
 -13958114.413 7 -10892305.275 7  23247772.109    23247766.848          42.500
        43.200    23247767.145
 -21553210.649 7 -17592787.945 8  21768493.484    21768487.637          47.900
        49.100    21768488.109
  -1344462.497 5  -2957858.913 6  25309708.984    25309708.883          35.900
        37.100    25309707.539
 -27511440.976 8 -20554711.21947  20577945.250    20577934.305          52.700
        43.000
 -24903408.628 8 -13021649.99646  21162158.961    21162149.656          49.600
        38.400
 16  1  1  1 22  0.0000000  0 11G32G06G07G03G08G27G26G09G30G23G16
 -10114578.265 6  -3063873.89943  24171230.305    24171224.750          40.400
        22.300
  -5943145.768 5  -4614715.429 6  24854821.633    24854820.945          34.700
        39.100    24854820.949
 -16131065.123 7 -13172013.763 7  22705834.180    22705826.398          46.600
        43.700    22705826.695
 -22688007.973 7 -17485322.011 8  21567058.430    21567053.168          47.600
        49.400    21567053.758
  -2398290.408 6  -3214522.434 6  25238367.859                          37.800
        36.800    25238365.066
  -6618768.408 6  -5920819.288 6  24538260.125    24538256.801          38.800
        40.200    24538256.746
 -13874795.030 7 -10827381.040 7  23263627.070    23263621.988          43.200
        43.300    23263622.281
 -21618661.789 8 -17643788.744 8  21756038.695    21756032.672          48.100
        49.700    21756032.969
  -1428259.328 5  -3023154.682 5  25293763.375    25293762.629          34.500
        32.400    25293760.465
 -27532443.638 8 -20571076.87947  20573948.672    20573937.727          51.500
        42.800
 -24865682.257 8 -12992252.75846  21169338.109    21169328.570          48.600
        38.600
 16  1  1  1 22 30.0000000  0 11G32G06G07G03G08G27G26G09G30G23G16
 -10009857.024 6  -2982272.88543  24191158.203    24191152.824          40.600
        21.500
  -5911455.813 5  -4590021.936 6  24860851.102    24860851.117          35.100
        39.700    24860851.590
 -16191141.956 7 -13218826.764 7  22694402.359    22694394.227          45.500
        43.300    22694394.289
 -22605176.612 7 -17420778.081 8  21582820.445    21582815.832          47.900
        49.000    21582816.305
  -2474911.184 5  -3274226.703 6  25223786.594                          32.400
        37.100    25223785.383
  -6691163.874 6  -5977231.190 6  24524483.609    24524480.402          37.600
        40.200    24524480.348
 -13791130.817 6 -10762188.123 7  23279547.727    23279542.703          41.400
        42.200    23279542.645
 -21683984.896 8 -17694689.786 8  21743607.977    21743601.895          48.000
        49.300    21743602.016
  -1511935.948 5  -3088356.909 5  25277837.477    25277838.664          33.700
        34.100    25277837.613
 -27553172.100 8 -20587228.87347  20570004.227    20569992.930          51.800
        42.800
 -24827346.585 8 -12962380.75746  21176633.078    21176623.480          49.200
        38.800
 16  1  1  1 23  0.0000000  0 11G32G06G07G03G08G27G26G09G30G23G16
  -9905053.028 6  -2900607.39343  24211100.930    24211095.906          40.900
        21.800
  -5879387.518 5  -4565033.617 6  24866954.133    24866953.445          35.500
        38.800    24866953.332
 -16251014.546 7 -13265480.615 7  22683008.094    22683000.898          46.200
        44.000    22683000.727
 -22521966.199 8 -17355938.799 8  21598655.523    21598650.383          48.400
        48.900    21598650.793
  -2551681.954 5  -3334047.860 6  25209176.070                          35.900
        37.500    25209175.738
  -6763471.522 6  -6033574.685 6  24510723.500    24510720.586          38.300
        40.400    24510720.590
 -13707123.819 7 -10696728.094 7  23295533.711    23295528.922          42.200
        42.200    23295528.922
 -21749177.971 8 -17745489.491 8  21731202.211    21731196.129          48.300
        49.400    21731196.191
  -1595490.995 6  -3153464.318 5  25261939.891    25261938.148          37.000
        34.300    25261936.980
 -27573624.214 8 -20603165.52947  20566112.109    20566101.281          52.100
        42.900
 -24788402.686 8 -12932034.80246  21184043.695    21184034.449          50.700
        38.100
 16  1  1  1 23 30.0000000  0 11G32G06G07G03G08G27G26G09G30G23G16
  -9800169.258 6  -2818879.75043  24231060.656    24231055.453          41.100
        21.500
  -5846944.038 6  -4539752.935 6  24873128.148    24873127.344          36.500
        38.700    24873127.055
 -16310684.115 7 -13311976.265 7  22671653.469    22671646.625          46.800
        44.100    22671646.570
 -22438379.957 8 -17290806.651 8  21614561.180    21614555.977          48.200
        48.900    21614556.332
  -2628600.972 5  -3393984.613 6  25194539.758                          34.400
        38.900    25194538.078
  -6835689.141 6  -6089848.029 6  24496981.648    24496977.445          38.400
        40.000    24496977.977
 -13622777.484 6 -10631003.643 7  23311584.258    23311579.410          41.400
        43.300    23311579.352
 -21814240.518 8 -17796187.494 8  21718821.406    21718814.738          48.100
        49.200    21718815.211
  -1678925.240 5  -3218477.694 6  25246061.828    25246060.672          35.500
        36.000    25246060.031
 -27593799.295 8 -20618886.31647  20562272.703    20562261.465          53.800
        42.600
 -24748853.388 8 -12901217.10046  21191569.727    21191560.363          50.500
        38.500
 16  1  1  1 24  0.0000000  0 11G32G06G07G03G08G27G26G09G30G23G16
  -9695207.264 6  -2737091.13843  24251034.453    24251028.547          39.600
        21.100
  -5814127.044 6  -4514181.194 6  24879372.688    24879372.234          37.500
        38.900    24879372.590
 -16370150.329 7 -13358313.454 7  22660337.484    22660330.289          45.600
        44.100    22660330.234
 -22354419.930 7 -17225383.243 8  21630538.352    21630533.387          47.700
        48.800    21630533.973
  -2705665.502 5  -3454034.728 6  25179874.195    25179872.980          35.000
        37.000    25179871.695
  -6907813.103 6  -6146048.373 6  24483257.313    24483252.992          39.700
        39.500    24483253.109
 -13538093.908 6 -10565016.411 7  23327698.203    23327693.473          40.000
        42.600    23327693.707
 -21879170.533 8 -17846782.213 8  21706465.195    21706459.172          49.100
        49.500    21706459.352
  -1762237.466 6  -3283395.898 6  25230210.250    25230205.813          39.500
        36.900    25230205.168
 -27613695.775 8 -20634390.01447  20558486.492    20558475.723          53.300
        43.100
 -24708699.702 8 -12869928.44946  21199210.445    21199201.492          51.000
        38.100
 16  1  1  1 24 30.0000000  0 11G32G06G07G03G08G27G26G09G30G23G16
  -9590169.472 6  -2655243.44443  24271021.914    24271016.418          39.600
        20.400
  -5780938.854 5  -4488320.211 6  24885688.305    24885687.148          35.400
        38.100    24885687.211
 -16429413.332 7 -13404492.284 7  22649059.750    22649052.672          46.900
        44.300    22649052.910
 -22270088.638 7 -17159670.538 8  21646585.563    21646580.949          47.300
        48.800    21646581.359
  -2782872.884 5  -3514196.104 6  25165182.664    25165181.332          33.600
        37.000    25165180.574
  -6979840.464 6  -6202173.432 6  24469550.383    24469546.355          39.200
        39.600    24469546.770
 -13453075.780 6 -10498768.495 7  23343877.219    23343872.371          40.400
        42.700    23343872.254
 -21943966.684 8 -17897272.631 8  21694134.836    21694129.223          49.500
        49.400    21694129.402
  -1845427.621 6  -3348219.094 6  25214377.297    25214375.086          36.000
        36.500    25214374.504
 -27633311.657 8 -20649675.06447  20554753.813    20554742.516          53.000
        42.800
 -24667943.406 8 -12838170.22946  21206966.063    21206956.992          50.000
        37.800
 16  1  1  1 25  0.0000000  0 11G32G06G07G03G08G27G26G09G30G23G16
  -9485057.506 6  -2573337.97343  24291024.781    24291019.109          39.400
        20.900
  -5747381.204 5  -4462171.330 6  24892074.070    24892072.914          35.300
        38.300    24892073.094
 -16488472.917 7 -13450512.614 7  22637821.727    22637813.184          47.000
        43.900    22637813.539
 -22185388.233 7 -17093670.192 8  21662703.523    21662698.559          47.800
        48.200    21662698.793
  -2860220.435 5  -3574466.808 6  25150464.156    25150462.238          33.700
        38.300    25150463.063
  -7051767.770 6  -6258220.529 6  24455862.672    24455859.055          38.800
        40.500    24455859.645
 -13367725.403 6 -10432261.666 7  23360118.414    23360113.859          41.100
        42.100    23360113.684
 -22008627.195 8 -17947657.345 8  21681830.000    21681823.977          48.900
        49.600    21681824.098
  -1928494.991 5  -3412946.622 6  25198568.289    25198568.363          35.900
        37.200    25198568.191
 -27652645.361 8 -20664740.23147  20551074.711    20551063.297          52.000
        42.800
 -24626585.714 8 -12805943.40146  21214836.273    21214826.617          49.000
        38.200
 16  1  1  1 25 30.0000000  0 11G32G06G07G03G08G27G26G09G30G23G16
  -9379873.702 6  -2491376.52443  24311039.945    24311034.684          38.700
        20.900
  -5713456.593 5  -4435736.516 6  24898529.789    24898528.926          34.400
        39.300    24898529.809
 -16547329.967 7 -13496375.120 7  22626621.211    22626613.195          46.000
        43.200    22626613.082
 -22100321.418 7 -17027384.339 8  21678891.180    21678886.449          47.900
        49.000    21678886.918
  -2937705.766 5  -3634844.828 6  25135718.578    25135717.363          33.200
        39.200    25135717.426
  -7123592.095 6  -6314187.377 6  24442194.977    24442190.773          39.000
        39.900    24442191.422
 -13282045.538 6 -10365498.110 7  23376422.555    23376418.352          41.100
        42.100    23376418.352
 -22073150.745 8 -17997935.341 8  21669551.938    21669545.738          49.300
        49.800    21669545.918
  -2011439.107 6  -3477578.111 5  25182786.359    25182784.500          38.100
        35.100    25182783.332
 -27671695.611 8 -20679584.53147  20547449.336    20547437.922          52.600
        43.300
 -24584628.650 8 -12773249.53046  21222820.102    21222811.090          48.700
        38.000
 16  1  1  1 26  0.0000000  0 11G32G06G07G03G08G27G26G09G30G23G16
  -9274620.686 6  -2409361.14843  24331069.242    24331063.043          39.000
        21.700
  -5679167.553 5  -4409017.708 6  24905053.672    24905053.863          35.500
        39.900    24905053.867
 -16605984.504 7 -13542079.831 7  22615459.148    22615451.309          46.600
        43.500    22615451.605
 -22014891.033 7 -16960815.192 8  21695147.969    21695143.297          47.900
        49.000    21695143.828
  -3015326.490 6  -3695328.372 6  25120949.430    25120946.809          36.400
        38.300    25120946.168
  -7195310.646 6  -6370071.789 6  24428546.422    24428543.391          39.600
        40.600    24428543.102
 -13196039.157 6 -10298480.127 7  23392789.367    23392784.930          41.000
        42.200    23392784.695
 -22137536.208 8 -18048105.729 8  21657299.914    21657293.363          49.000
        49.200    21657293.543
  -2094259.999 6  -3542113.672 6  25167024.109    25167023.129          37.000
        36.700    25167023.426
 -27690461.212 8 -20694207.02947  20543878.711    20543867.355          52.700
        42.800
 -24542074.287 8 -12740090.22146  21230918.117    21230908.578          50.500
        38.200
 16  1  1  1 26 30.0000000  0 11G32G06G07G03G08G27G26G09G30G23G16
  -9169300.143 6  -2327293.14443  24351111.375    24351105.176          37.500
        21.300
  -5644515.911 5  -4382016.371 6  24911648.016    24911647.621          35.000
        38.800    24911647.156
 -16664436.319 7 -13587626.571 7  22604336.086    22604328.188          45.900
        44.300    22604328.426
 -21929099.168 8 -16893964.359 8  21711473.547    21711468.875          48.100
        48.200    21711469.641
  -3093079.952 6  -3755915.368 6  25106152.688    25106149.773          36.900
        39.300    25106149.777
  -7266919.892 6  -6425871.043 6  24414920.219    24414916.484          39.800
        40.400    24414916.488
 -13109708.445 6 -10231209.384 7  23409217.594    23409213.156          40.500
        42.500    23409213.098
 -22201781.722 8 -18098167.069 8  21645074.414    21645068.098          49.000
        49.600    21645068.277
  -2176956.786 6  -3606552.470 5  25151289.133    25151286.336          39.200
        34.200    25151286.047
 -27708940.423 8 -20708606.37347  20540362.234    20540351.230          52.700
        43.200
 -24498924.292 8 -12706466.79746  21239129.258    21239119.953          48.600
        37.600
 16  1  1  1 27  0.0000000  0 11G32G06G07G03G08G27G26G09G30G23G16
  -9063914.874 6  -2245174.69343  24371165.227    24371159.613          38.100
        21.700
  -5609504.606 6  -4354734.770 6  24918310.602    24918309.738          37.200
        38.300    24918310.270
 -16722686.432 7 -13633016.142 7  22593251.570    22593243.789          45.800
        44.000    22593244.203
 -21842949.069 7 -16826834.400 8  21727867.555    21727862.766          46.800
        48.500    21727863.000
  -3170964.012 5  -3816604.114 6  25091329.805    25091328.590          34.700
        38.700    25091328.652
  -7338417.455 6  -6481583.290 6  24401314.891    24401310.688          39.700
        41.300    24401311.336
 -13023056.694 6 -10163688.518 7  23425707.406    23425702.441          40.600
        43.200    23425702.324
 -22265886.420 8 -18148118.676 8  21632875.094    21632868.895          49.500
        49.200    21632869.133
  -2259529.773 6  -3670894.894 5  25135575.289    25135573.195          38.400
        34.800    25135571.969
 -27727132.163 8 -20722781.69547  20536900.109    20536888.637          51.500
        42.900
 -24455181.088 8 -12672381.13446  21247453.227    21247444.273          48.100
        38.100
 16  1  1  1 27 30.0000000  0 11G32G06G07G03G08G27G26G09G30G23G16
  -8958466.662 6  -2163007.21443  24391230.898    24391224.992          38.400
        20.900
  -5574135.457 6  -4327174.303 6  24925041.547    24925039.688          37.000
        39.200    24925040.629
 -16780734.391 7 -13678248.193 7  22582204.852    22582197.422          46.600
        44.000    22582197.660
 -21756442.818 7 -16759426.933 8  21744329.219    21744324.254          47.000
        48.500    21744325.016
  -3248976.319 5  -3877392.821 6  25076484.383    25076483.578          32.500
        39.100    25076482.996
  -7409799.845 6  -6537205.745 6  24387730.820    24387726.969          39.200
        41.300    24387726.973
 -12936086.075 6 -10095919.157 7  23442256.805    23442252.016          41.500
        43.600    23442252.484
 -22329848.453 8 -18197959.115 8  21620703.656    21620697.105          48.800
        49.800    21620697.461
  -2341978.258 6  -3735140.279 5  25119885.086    25119883.578          38.000
        33.900    25119882.059
 -27745034.691 8 -20736731.66247  20533493.234    20533482.348          51.500
        42.700
 -24410845.993 7 -12637834.25646  21255890.141    21255880.191          47.500
        37.900
 16  1  1  1 28  0.0000000  0 11G32G06G07G03G08G27G26G09G30G23G16
  -8852957.525 6  -2080792.28543  24411308.680    24411303.184          37.500
        20.900
  -5538410.678 6  -4299336.727 6  24931839.523    24931838.660          37.600
        39.400    24931839.250
 -16838580.518 7 -13723322.973 7  22571197.508    22571189.375          46.700
        44.100    22571189.613
 -21669582.885 7 -16691743.853 8  21760857.844    21760853.172          46.400
        48.100    21760853.820
  -3327113.792 5  -3938279.033 6  25061616.328    25061613.941          34.600
        38.700    25061614.824
  -7481063.746 6  -6592735.879 6  24374169.516    24374165.547          38.500
        40.800    24374165.609
 -12848799.230 6 -10027903.390 7  23458866.781    23458861.758          40.600
        42.900    23458861.816
 -22393666.232 8 -18247687.149 8  21608559.406    21608552.914          49.600
        49.900    21608553.270
  -2424301.642 6  -3799288.197 6  25104219.641    25104218.309          37.800
        36.200    25104217.258
 -27762646.446 8 -20750455.05547  20530141.984    20530130.512          52.600
        42.800
 -24365920.728 8 -12602827.50546  21264438.805    21264429.207          48.600
        38.000
 16  1  1  1 28 30.0000000  0 11G32G06G07G03G08G27G26G09G30G23G16
  -8747389.780 6  -1998531.65543  24431397.016    24431391.875          39.200
        21.500
  -5502332.773 6  -4271223.992 6  24938704.688    24938703.590          36.600
        38.900    24938704.180
 -16896225.109 7 -13768240.709 7  22560227.961    22560219.945          46.400
        43.800    22560220.184
 -21582371.912 7 -16623787.204 8  21777453.594    21777448.922          46.100
        48.300    21777449.332
  -4980793.791 5  -5226860.749 6  25046723.453    25046721.418          35.000
        39.500    25046721.949
  -7552206.281 6  -6648171.443 6  24360630.891    24360627.273          38.400
        40.500    24360627.453
 -12761198.836 6  -9959643.290 7  23475536.820    23475531.914          40.700
        43.000    23475532.090
 -22457338.405 8 -18297301.724 8  21596442.742    21596436.777          48.900
        50.200    21596437.133
  -2506499.671 6  -3863338.375 6  25088576.984    25088576.590          36.800
        36.900    25088575.832
 -27779966.067 8 -20763950.81847  20526846.070    20526834.656          52.300
        43.400
 -24320407.663 7 -12567362.73846  21273099.664    21273090.652          47.600
        37.600
 16  1  1  1 29  0.0000000  0 11G32G06G07G03G08G27G26G09G30G23G16
  -8641765.268 6  -1916226.78643  24451497.148    24451491.594          38.300
        21.300
  -5465903.606 6  -4242837.520 6  24945637.211    24945635.938          36.700
        38.300    24945636.117
 -16953668.077 7 -13813001.352 7  22549296.750    22549288.969          46.700
        44.500    22549289.148
 -21494812.228 7 -16555558.853 8  21794115.469    21794110.797          46.000
        48.300    21794111.328
  -5059173.710 5  -5287935.878 6  25031809.422    25031806.859          35.100
        39.500    25031807.156
  -7623224.007 6  -6703509.764 6  24347117.078    24347113.051          37.800
        40.800    24347113.230
 -12673287.361 6  -9891140.791 7  23492265.781    23492260.992          40.800
        42.200    23492260.641
 -22520863.124 8 -18346801.400 8  21584354.313    21584347.820          48.400
        50.000    21584348.059
  -2588571.699 6  -3927290.388 6  25072959.078    25072957.922          37.900
        37.700    25072957.457
 -27796991.578 8 -20777217.40647  20523606.047    20523594.867          52.100
        43.400
 -24274308.013 8 -12531440.87446  21281872.016    21281862.594          48.500
        37.600
 16  1  1  1 29 30.0000000  0 11G32G06G07G03G08G27G26G09G30G23G16
  -8536086.401 6  -1833879.57843  24471606.578    24471601.438          37.900
        20.900
  -5429125.921 6  -4214179.455 6  24952635.945    24952633.793          36.300
        38.300    24952633.563
 -17010910.114 7 -13857605.418 7  22538403.953    22538396.289          45.800
        44.400    22538396.586
 -21406906.687 7 -16487060.988 7  21810843.328    21810838.891          46.100
        47.700    21810839.422
  -5137671.286 5  -5349102.707 6  25016871.180    25016868.734          34.500
        39.100    25016868.680
  -7694114.090 6  -6758748.606 6  24333627.188    24333622.984          37.900
        40.100    24333623.047
 -12585067.574 6  -9822398.052 7  23509053.578    23509048.730          40.200
        43.200    23509048.906
 -22584239.185 8 -18396185.250 8  21572294.625    21572288.133          48.700
        49.900    21572288.371
  -2670517.647 6  -3991144.106 6  25057364.648    25057363.668          37.200
        37.700    25057363.320
 -27813721.708 8 -20790253.82047  20520422.516    20520411.277          52.900
        43.300
 -24227624.119 8 -12495063.76646  21290756.047    21290746.566          49.100
        37.700
 16  1  1  1 30  0.0000000  0 11G32G06G07G03G08G27G26G09G30G23G16
  -8430355.019 6  -1751491.46443  24491726.883    24491721.328          36.800
        19.600
  -5392001.577 6  -4185251.275 6  24959700.180    24959698.613          37.100
        38.300    24959699.730
 -17067950.830 7 -13902052.613 7  22527549.102    22527541.613          46.000
        44.900    22527541.969
 -21318657.482 7 -16418295.327 7  21827636.875    21827632.027          46.300
        47.900    21827632.555
  -5216283.377 5  -5410358.740 6  25001910.555    25001909.281          32.400
        38.600    25001908.582
  -7764873.035 6  -6813885.273 6  24320161.320    24320157.645          38.100
        39.900    24320157.824
 -12496541.835 6  -9753416.907 7  23525899.531    23525894.094          40.600
        42.300    23525893.980
 -22647464.668 8 -18445451.775 8  21560263.180    21560256.453          48.400
        50.200    21560256.516
  -2752336.828 6  -4054899.047 6  25041795.531    25041793.438          38.500
        37.700    25041793.090
 -27830154.839 8 -20803058.81347  20517295.023    20517284.078          52.500
        42.800
 -24180357.562 8 -12458232.62946  21299750.445    21299740.906          48.900
        37.700
 16  1  1  1 30 30.0000000  0 11G32G06G07G03G08G27G26G09G30G23G16
  -8324573.854 6  -1669064.52643  24511856.578    24511850.672          36.300
        19.900
  -5354533.598 5  -4156055.329 6  24966828.672    24966828.219          35.400
        38.800    24966828.809
 -17124791.280 7 -13946343.758 7  22516732.773    22516725.285          45.900
        45.000    22516725.172
 -21230067.901 7 -16349264.440 7  21844495.000    21844489.859          45.500
        47.600    21844490.563
  -5295007.930 5  -5471702.389 6  24986931.867    24986928.133          34.700
        38.100    24986928.313
  -7835498.440 6  -6868917.885 6  24306722.625    24306718.305          38.100
        40.100    24306718.305
 -12407713.383 6  -9684199.852 7  23542802.859    23542797.895          41.400
        43.100    23542797.953
 -22710538.735 8 -18494600.309 8  21548260.016    21548253.816          50.000
        50.600    21548254.113
  -2834029.422 6  -4118555.367 6  25026250.773    25026247.566          38.800
        37.300    25026247.219
 -27846290.433 8 -20815631.95547  20514224.977    20514213.563          52.700
        43.000
 -24132511.145 8 -12420949.64846  21308855.008    21308845.586          49.900
        37.800
 16  1  1  1 31  0.0000000  0 11G32G06G07G03G08G27G26G09G30G23G16
  -8218744.446 6  -1586600.00943  24531995.414    24531989.039          36.300
        20.100
  -5316723.655 6  -4126592.945 6  24974024.078    24974024.035          36.500
        38.800    24974023.863
 -17181430.709 8 -13990478.273 7  22505954.781    22505946.648          48.000
        44.600    22505947.004
 -21141139.820 7 -16279969.779 7  21861417.281    21861412.316          45.800
        47.900    21861412.434
  -5373842.107 5  -5533131.462 6  24971929.125    24971926.328          35.000
        38.100    24971926.098
  -7905986.470 6  -6923843.450 6  24293309.367    24293304.402          39.000
        40.300    24293304.461
 -12318584.213 6  -9614748.497 7  23559763.156    23559758.133          40.600
        42.000    23559758.191
 -22773459.145 8 -18543629.127 8  21536286.773    21536280.457          48.800
        50.300    21536280.754
  -2915594.579 6  -4182112.339 6  25010728.344    25010726.426          38.300
        36.200    25010725.609
 -27862125.800 8 -20827971.15947  20511211.391    20511200.621          53.200
        43.100
 -24084086.057 8 -12383215.76246  21318069.906    21318060.309          49.700
        37.700
 16  1  1  1 31 30.0000000  0 11G32G06G07G03G08G27G26G09G30G23G16
  -8112869.591 6  -1504100.09643  24552142.023    24552136.762          36.900
        19.000
  -5278574.817 6  -4096866.412 6  24981284.180    24981282.789          37.000
        39.400    24981283.145
 -17237870.271 7 -14034457.041 7  22495214.727    22495206.652          46.900
        45.200    22495206.715
 -21051876.560 7 -16210413.938 8  21878403.359    21878398.098          45.400
        48.100    21878398.570
  -5452783.811 5  -5594644.308 6  24956906.328    24956904.820          34.800
        38.400    24956904.707
  -7976334.604 6  -6978660.013 6  24279922.414    24279917.332          40.300
        40.200    24279917.859
 -12229157.703 6  -9545065.433 7  23576780.672    23576775.707          40.900
        42.400    23576775.824
 -22836224.996 8 -18592537.506 8  21524342.719    21524336.344          48.300
        50.200    21524336.758
  -2997032.558 6  -4245570.270 6  24995232.141    24995228.406          38.700
        36.100    24995228.059
 -27877660.363 8 -20840075.96347  20508255.297    20508244.234          53.400
        43.100
 -24035085.110 8 -12345033.14446  21327394.734    21327385.195          50.200
        37.300
 16  1  1  1 32  0.0000000  0 11G32G06G07G03G08G27G26G09G30G23G16
  -8006950.934 6  -1421566.04143  24572297.867    24572292.020          37.700
        20.100
  -5240088.959 6  -4066877.273 6  24988605.953    24988605.852          36.500
        39.200    24988606.559
 -17294109.745 7 -14078279.894 7  22484512.430    22484504.355          47.000
        45.100    22484504.535
 -20962280.290 7 -16140598.642 7  21895453.055    21895447.676          46.000
        47.600    21895448.207
  -5531829.520 6  -5656238.178 6  24941865.078    24941861.754          36.300
        39.200    24941862.754
  -8046539.405 6  -7033364.888 6  24266562.445    24266557.656          39.700
        39.700    24266557.832
 -12139435.934 6  -9475152.290 6  23593854.352    23593848.680          40.900
        41.700    23593848.742
 -22898834.267 8 -18641323.884 8  21512428.773    21512421.754          48.600
        49.800    21512422.051
  -3078342.595 6  -4308928.477 5  24979758.695    24979755.957          38.200
        35.500    24979755.609
 -27892892.033 8 -20851944.75547  20505356.570    20505345.508          52.800
        43.300
 -23985509.827 8 -12306402.99546  21336828.344    21336818.805          50.200
        37.500
 16  1  1  1 32 30.0000000  0 11G32G06G07G03G08G27G26G09G30G23G16
  -7900990.344 6  -1338999.28443  24592461.328    24592456.008          38.300
        19.300
  -5201268.305 6  -4036627.295 6  24995996.047    24995994.363          37.500
        39.700    24995994.367
 -17350148.956 7 -14121946.702 7  22473848.508    22473840.434          46.600
        44.600    22473840.145
 -20872353.280 7 -16070525.622 8  21912565.734    21912560.121          45.200
        48.600    21912560.711
  -5610976.648 6  -5717911.074 6  24926803.711    24926801.031          36.000
        38.800    24926801.387
  -8116597.294 6  -7087955.272 6  24253230.727    24253225.879          40.500
        40.000    24253225.586
 -12049421.233 6  -9405010.895 7  23610983.133    23610977.871          39.800
        42.100    23610977.641
 -22961285.083 8 -18689986.772 8  21500544.656    21500538.281          48.600
        50.100    21500538.461
  -3159524.043 6  -4372186.510 6  24964309.563    24964306.941          39.000
        37.200    24964306.242
 -27907818.999 8 -20863576.10747  20502516.250    20502504.953          53.300
        43.400
 -23935361.937 8 -12267326.65346  21346371.211    21346361.496          49.800
        37.000
 16  1  1  1 33  0.0000000  0 11G32G06G07G03G08G27G26G09G30G23G16
  -7794991.032 6  -1256402.36243  24612632.719    24612626.813          38.700
        19.000
  -5162116.067 6  -4006118.922 6  25003445.250    25003443.918          37.700
        38.700    25003444.039
 -17405988.796 7 -14165458.145 7  22463222.375    22463214.066          47.000
        44.700    22463214.070
 -20782099.158 7 -16000197.694 8  21929739.953    21929735.516          46.200
        48.100    21929735.813
  -5690223.682 5  -5779661.807 6  24911722.617    24911720.465          35.300
        38.500    24911721.113
  -8186506.116 6  -7142429.470 6  24239927.383    24239922.301          39.600
        40.700    24239922.770
 -11959117.357 6  -9334644.136 7  23628167.758    23628162.320          40.700
        42.000    23628162.266
 -23023576.872 8 -18738525.744 8  21488690.547    21488684.230          48.000
        49.900    21488684.234
  -3240577.527 6  -4435344.796 6  24948886.109    24948882.609          38.000
        37.200    24948882.730
 -27922440.993 8 -20874969.81447  20499733.594    20499722.355          53.600
        43.000
 -23884644.373 8 -12227806.40846  21356022.133    21356012.887          49.500
        37.200
 16  1  1  1 33 30.0000000  0 11G32G06G07G03G08G27G26G09G30G23G16
  -7688954.259 6  -1173776.25643  24632810.656    24632804.984          39.500
        19.300
  -5122633.989 6  -3975353.512 6  25010957.672    25010957.219          36.000
        39.000    25010957.223
 -17461629.660 7 -14208814.555 7  22452633.953    22452626.172          47.500
        44.900    22452626.059
 -20691519.809 7 -15929616.358 8  21946976.742    21946972.070          45.800
        48.000    21946972.246
  -5769567.106 6  -5841487.635 6  24896624.125    24896621.563          37.700
        37.900    24896620.570
  -8256262.149 6  -7196784.631 6  24226652.398    24226648.078          38.300
        40.200    24226648.137
 -11868526.094 6  -9264053.495 7  23645406.242    23645401.570          40.300
        42.700    23645401.570
 -23085707.274 8 -18786938.963 8  21476867.695    21476861.027          49.300
        50.000    21476861.207
  -3321501.996 6  -4498402.586 6  24933485.719    24933483.273          38.700
        38.100    24933483.160
 -27936755.769 8 -20886124.13547  20497009.445    20496998.207          53.500
        42.900
 -23833358.821 8 -12187843.58346  21365781.531    21365771.934          49.600
        37.100
 16  1  1  1 34  0.0000000  0 11G32G06G07G03G08G27G26G09G30G23G16
  -7582882.578 6  -1091122.91743  24652995.063    24652989.922          38.700
        19.300
  -5082824.684 6  -3944333.142 6  25018532.930    25018532.535          37.300
        39.800    25018533.301
 -17517071.604 7 -14252015.934 7  22442083.500    22442075.777          46.800
        44.600    22442075.957
 -20600618.163 7 -15858783.883 7  21964274.633    21964269.961          45.300
        47.500    21964270.371
  -5849004.067 6  -5903386.357 6  24881507.156    24881505.180          36.500
        38.400    24881505.359
  -8325862.353 6  -7251018.344 6  24213407.414    24213403.621          37.600
        41.100    24213404.094
 -11777650.448 6  -9193241.254 6  23662698.758    23662694.203          40.000
        41.900    23662694.379
 -23147675.004 8 -18835225.426 8  21465075.641    21465068.973          49.200
        50.600    21465069.211
  -3402297.392 6  -4561359.784 6  24918110.492    24918107.930          38.400
        38.400    24918107.582
 -27950762.055 8 -20897038.05947  20494344.336    20494333.215          53.200
        43.700
 -23781507.562 8 -12147439.94446  21375648.477    21375638.996          50.000
        37.200
 16  1  1  1 34 30.0000000  0 11G32G06G07G03G08G27G26G09G30G23G16
  -7476777.540 6  -1008443.65642  24673186.586    24673181.266          38.800
        17.800
  -5042690.370 6  -3913059.521 6  25026171.234    25026169.434          38.500
        38.400    25026170.258
 -17572314.618 7 -14295062.320 7  22431570.789    22431563.066          47.300
        45.000    22431563.188
 -20509396.496 7 -15787702.051 8  21981633.781    21981628.992          45.700
        48.000    21981629.461
  -5928532.202 6  -5965356.165 6  24866375.352    24866371.266          38.000
        38.400    24866371.328
  -8395303.403 6  -7305128.048 6  24200193.727    24200189.113          37.700
        41.100    24200189.703
 -11686492.625 6  -9122209.117 6  23680046.273    23680040.895          40.800
        41.800    23680041.074
 -23209478.091 8 -18883383.590 8  21453314.688    21453308.137          48.800
        50.300    21453308.199
  -3482963.093 6  -4624215.928 6  24902762.172    24902757.383          39.300
        38.300    24902757.441
 -27964457.868 8 -20907710.06447  20491738.180    20491726.941          53.700
        43.500
 -23729092.225 8 -12106596.76146  21385622.727    21385613.305          49.800
        37.300
 16  1  1  1 35  0.0000000  0 11G32G06G07G03G08G27G26G09G30G23G16
  -7370642.174 6   -925740.70243  24693383.555    24693377.941          38.800
        19.300
  -5002233.949 6  -3881534.913 6  25033870.430    25033867.809          38.100
        36.800    25033866.992
 -17627359.208 7 -14337954.089 7  22421096.469    22421088.336          46.800
        44.600    22421088.691
 -20417858.046 7 -15716373.369 7  21999052.906    21999047.824          45.300
        47.600    21999048.293
  -6008149.057 6  -6027395.089 6  24851222.586    24851220.375          37.200
        38.000    24851220.262
  -8464582.717 6  -7359111.714 6  24187010.070    24187005.809          38.700
        40.700    24187005.633
 -11595055.913 6  -9050959.673 7  23697445.445    23697440.832          40.200
        42.200    23697440.773
 -23271115.469 8 -18931412.627 8  21441585.445    21441578.777          49.800
        49.600    21441579.074
  -3563499.341 6  -4686971.205 6  24887433.398    24887431.539          37.600
        37.700    24887431.309
 -27977842.561 8 -20918139.63347  20489191.063    20489179.707          53.700
        43.200
 -23676115.476 8 -12065316.11546  21395703.938    21395694.340          49.800
        37.300
 16  1  1  1 35 30.0000000  0 11G32G06G07G03G08G27G26G09G30G23G16
  -7264477.855 6   -843015.20142  24713585.633    24713580.492          39.200
        17.400
  -4961457.395 6  -3849760.809 6  25041628.156    25041626.883          36.900
        37.200    25041626.066
 -17682205.324 7 -14380691.198 7  22410659.820    22410651.277          47.900
        45.000    22410651.457
 -20326004.866 7 -15644799.417 7  22016532.359    22016527.156          45.200
        47.900    22016527.746
  -6087851.430 6  -6089500.665 6  24836056.234    24836053.730          36.700
        37.500    24836053.324
  -8533696.514 6  -7412966.394 6  24173857.844    24173853.289          38.100
        40.900    24173853.523
 -11503342.330 6  -8979494.463 6  23714898.375    23714892.879          39.900
        41.000    23714893.293
 -23332585.046 8 -18979310.905 8  21429888.641    21429881.680          49.000
        49.900    21429882.035
  -3643905.323 6  -4749624.988 6  24872132.117    24872130.316          37.800
        38.100    24872130.262
 -27990913.923 8 -20928325.05047  20486703.836    20486692.363          53.700
        42.700
 -23622579.067 8 -12023599.36746  21405891.305    21405881.883          50.200
        37.100
 16  1  1  1 36  0.0000000  0 11G32G06G07G03G08G27G26G09G30G23G16
  -7158287.094 6   -760269.09843  24733792.813    24733787.199          38.800
        18.300
  -4920363.407 6  -3817739.388 6  25049448.703    25049447.723          36.400
        39.200    25049447.199
 -17736853.534 7 -14423274.100 7  22400260.164    22400252.324          47.600
        44.800    22400252.504
 -20233839.931 7 -15572982.539 8  22034070.539    22034065.633          45.100
        48.500    22034066.277
  -6167636.838 6  -6151670.979 6  24820873.047    24820870.426          36.000
        38.600    24820870.723
  -8602641.968 6  -7466689.903 6  24160738.414    24160733.152          38.300
        40.700    24160733.742
 -11411354.833 6  -8907815.843 6  23732402.461    23732397.438          39.600
        41.100    23732397.496
 -23393885.396 8 -19027077.316 8  21418223.063    21418216.336          49.500
        50.000    21418216.574
  -3724180.883 6  -4812177.137 6  24856858.578    24856854.551          38.900
        37.500    24856853.906
 -28003670.675 8 -20938265.31747  20484275.867    20484264.629          53.700
        43.000
 -23568485.633 8 -11981448.56246  21416184.984    21416175.270          48.800
        37.200
 16  1  1  1 36 30.0000000  0 11G32G06G07G03G08G27G26G09G30G23G16
  -7052071.926 6   -677503.95343  24754005.297    24753999.508          38.700
        18.300
  -4878954.256 5  -3785472.410 6  25057327.570    25057327.645          35.400
        37.000    25057326.770
 -17791304.143 7 -14465703.023 7  22389898.719    22389890.703          47.600
        45.300    22389890.941
 -20141365.978 7 -15500924.885 7  22051667.813    22051662.551          45.500
        47.800    22051663.082
  -6247502.694 6  -6213903.949 6  24805674.727    24805672.164          37.500
        38.000    24805672.051
  -8671416.062 6  -7520279.878 6  24147650.000    24147645.738          39.100
        41.400    24147646.445
 -11319096.059 6  -8835925.794 6  23749958.703    23749954.090          39.200
        41.300    23749953.563
 -23455014.969 8 -19074710.661 8  21406590.430    21406583.410          49.500
        50.000    21406583.590
  -3804325.912 6  -4874627.566 6  24841606.039    24841603.301          37.300
        38.600    24841603.070
 -28016111.588 8 -20947959.49747  20481908.461    20481897.281          53.600
        43.300
 -23513837.246 8 -11938865.34446  21426584.094    21426574.613          48.200
        36.600
 16  1  1  1 37  0.0000000  0 11G32G06G07G03G08G27G26G09G30G23G16
  -6945834.578 6   -594721.55942  24774221.484    24774215.930          37.300
        17.800
  -4837232.863 6  -3752962.114 5  25065267.500    25065266.285          37.400
        35.900    25065264.121
 -17845557.120 7 -14507977.943 7  22379574.188    22379565.996          47.600
        45.100    22379566.293
 -20048585.678 7 -15428628.515 7  22069323.063    22069318.273          45.700
        47.500    22069318.801
  -6327446.445 6  -6276197.628 6  24790462.789    24790459.523          37.300
        36.900    24790459.586
  -8740015.579 6  -7573733.850 6  24134596.625    24134591.719          38.100
        41.300    24134591.719
 -11226568.691 6  -8763826.490 6  23767566.633    23767560.609          39.900
        41.700    23767560.730
 -23515972.132 8 -19122209.661 8  21394990.453    21394983.668          49.900
        50.400    21394983.730
  -3884340.089 6  -4936976.035 6  24826379.547    24826376.457          38.600
        38.900    24826377.105
 -28028235.095 8 -20957406.33547  20479601.422    20479590.242          53.000
        43.300
 -23458636.152 8 -11895851.43446  21437088.461    21437079.039          48.500
        37.200
 16  1  1  1 37 30.0000000  0 11G32G06G07G03G08G27G26G09G30G23G16
  -6839577.899 6   -511924.05842  24794441.539    24794435.340          38.000
        17.800
  -4795201.951 6  -3720210.582 6  25073266.859    25073263.770          38.200
        38.300    25073264.477
 -17899613.757 7 -14550099.878 7  22369287.492    22369279.301          47.200
        45.400    22369279.598
 -19955502.268 7 -15356095.939 7  22087036.367    22087031.344          45.000
        47.600    22087031.754
  -6407465.777 6  -6338550.266 6  24775235.398    24775231.605          38.300
        36.500    24775230.961
  -8808438.045 6  -7627049.837 6  24121576.156    24121570.836          37.800
        41.200    24121571.543
 -11133775.996 6  -8691520.398 6  23785223.695    23785218.730          39.600
        41.400    23785218.672
 -23576755.850 8 -19169573.510 8  21383423.625    21383417.074          49.400
        49.900    21383417.254
  -3964223.650 6  -4999222.724 6  24811177.344    24811175.367          38.300
        38.700    24811175.488
 -28040040.408 8 -20966605.23447  20477355.039    20477343.684          53.800
        43.400
 -23402885.159 7 -11852409.03746  21447697.680    21447688.023          47.300
        37.100
 16  1  1  1 38  0.0000000  0 11G32G06G07G03G08G27G26G09G30G23G16
  -6733303.352 6   -429112.64443  24814664.898    24814659.402          38.200
        18.600
  -4752863.740 6  -3687219.697 6  25081322.273    25081320.707          37.700
        37.900    25081320.652
 -17953473.910 7 -14592068.705 7  22359038.430    22359029.887          47.800
        44.800    22359030.066
 -19862118.013 7 -15283328.945 7  22104806.664    22104801.582          45.500
        47.000    22104801.934
  -6487557.340 6  -6400959.151 6  24759995.016    24759990.637          38.600
        37.000    24759990.402
  -8876679.840 6  -7680225.079 6  24108589.609    24108584.820          37.800
        40.900    24108585.289
 -11040720.091 6  -8619009.251 7  23802932.352    23802926.738          39.900
        42.100    23802926.977
 -23637363.928 8 -19216800.503 8  21371890.359    21371883.281          48.800
        50.500    21371883.578
  -4043975.903 6  -5061367.111 6  24796001.898    24795998.281          39.300
        38.700    24795998.285
 -28051525.437 8 -20975554.55347  20475169.383    20475157.910          53.000
        43.100
 -23346586.659 7 -11808540.00446  21458411.297    21458400.938          46.300
        37.300
 16  1  1  1 38 30.0000000  0 11G32G06G07G03G08G27G26G09G30G23G16
  -6627012.778 6   -346288.78443  24834891.227    24834885.262          38.800
        18.600
  -4710220.291 6  -3653990.881 6  25089436.422    25089435.617          37.400
        37.500    25089435.855
 -18007137.256 8 -14633884.172 7  22348826.297    22348818.223          48.100
        45.200    22348818.109
 -19768435.254 7 -15210329.351 7  22122633.758    22122629.027          44.900
        47.400    22122629.203
  -6567718.395 6  -6463422.206 6  24744740.164    24744736.137          38.700
        37.800    24744736.434
  -8944737.433 6  -7733256.758 6  24095638.375    24095633.645          39.500
        41.400    24095634.645
 -10947403.289 6  -8546294.793 6  23820689.711    23820683.863          39.600
        40.500    23820683.926
 -23697794.449 8 -19263889.138 8  21360391.234    21360383.922          49.300
        50.300    21360384.219
  -4123596.230 6  -5123408.696 6  24780850.586    24780847.320          39.900
        38.400    24780848.203
 -28062688.330 8 -20984252.87247  20473044.898    20473033.719          53.200
        43.500
 -23289741.863 7 -11764245.30246  21469228.289    21469218.281          47.000
        36.400
 16  1  1  1 39  0.0000000  0 11G32G06G07G03G08G27G26G09G30G23G16
  -6520708.766 6   -263454.44342  24855120.070    24855114.516          38.400
        16.900
  -4667274.627 6  -3620526.597 6  25097610.414    25097607.793          38.600
        38.200    25097607.445
 -18060604.905 7 -14675547.158 7  22338651.875    22338643.859          47.700
        45.000    22338643.746
 -19674457.166 7 -15137099.633 7  22140516.914    22140512.301          45.000
        47.600    22140512.832
  -6647946.176 6  -6525937.226 6  24729473.094    24729469.477          38.600
        38.100    24729469.773
  -9012608.295 6  -7786142.968 6  24082723.234    24082718.094          38.500
        40.800    24082718.387
 -10853828.728 6  -8473379.469 6  23838495.547    23838491.344          39.600
        41.100    23838491.344
 -23758046.206 8 -19310838.477 8  21348925.586    21348918.566          49.100
        50.000    21348918.570
  -4203084.815 6  -5185347.617 6  24765724.016    24765720.164          39.300
        38.600    24765719.578
 -28073528.352 8 -20992699.59747  20470982.336    20470970.805          53.800
        43.100
 -23232353.544 7 -11719527.06946  21480148.516    21480139.035          46.000
        36.100
 16  1  1  1 39 30.0000000  0 11G32G06G07G03G08G27G26G09G30G23G16
  -6414393.187 6   -180611.06742  24875351.320    24875345.941          37.200
        17.400
  -4624028.936 6  -3586828.490 6  25105839.930    25105836.840          39.200
        36.600    25105835.668
 -18113876.368 7 -14717057.263 7  22328514.305    22328506.230          47.300
        45.200    22328506.234
 -19580186.138 7 -15063641.651 7  22158456.328    22158451.125          45.200
        47.400    22158451.832
  -6728238.085 6  -6588502.240 6  24714194.391    24714190.188          38.000
        37.800    24714190.367
  -9080288.805 6  -7838880.848 6  24069843.398    24069838.316          38.700
        41.000    24069839.078
 -10759998.698 6  -8400265.123 6  23856351.203    23856346.238          39.100
        40.400    23856346.004
 -23818117.137 8 -19357646.915 8  21337494.117    21337486.805          49.100
        50.500    21337487.043
  -4282441.103 6  -5247183.469 6  24750623.148    24750619.355          38.800
        39.200    24750619.418
 -28084043.675 8 -21000893.31247  20468981.320    20468969.789          53.400
        43.200
 -23174423.711 7 -11674386.88146  21491172.188    21491162.414          46.600
        36.800
 16  1  1  1 40  0.0000000  0 11G32G06G07G03G08G27G26G09G30G23G16
  -6308068.446 6    -97760.53742  24895584.000    24895578.328          38.200
        17.800
  -4580486.155 6  -3552898.924 6  25114125.500    25114122.527          38.600
        38.200    25114122.590
 -18166952.435 7 -14758415.124 7  22318414.539    22318405.938          47.600
        44.800    22318406.293
 -19485625.242 7 -14989957.792 7  22176451.008    22176445.746          45.600
        47.300    22176446.160
  -6808591.333 6  -6651115.020 6  24698902.773    24698899.801          36.900
        38.500    24698899.688
  -9147776.307 6  -7891468.343 6  24057001.633    24056996.137          38.400
        41.200    24056996.668
 -10665916.227 6  -8326954.013 6  23874254.313    23874248.875          40.400
        40.400    23874249.113
 -23878005.988 8 -19404313.464 8  21326097.539    21326090.578          50.100
        50.500    21326090.699
  -4361665.190 6  -5308916.260 6  24735546.969    24735543.469          39.000
        38.900    24735544.234
 -28094233.267 8 -21008833.20947  20467042.391    20467030.977          53.200
        43.100
 -23115955.507 7 -11628827.18846  21502298.539    21502288.707          46.700
        37.000
 16  1  1  1 40 30.0000000  0 11G32G06G07G03G08G27G26G09G30G23G16
  -6201736.260 6    -14904.23242  24915818.336    24915812.781          38.700
        16.900
  -4536648.273 6  -3518739.369 6  25122466.125    25122464.852          36.100
        38.400    25122465.324
 -18219833.033 7 -14799620.664 7  22308351.398    22308342.855          47.900
        44.600    22308343.328
 -19390776.729 7 -14916049.819 7  22194499.570    22194494.781          45.500
        46.700    22194495.133
  -6889002.576 6  -6713772.990 6  24683601.414    24683597.504          38.300
        37.900    24683597.859
  -9215067.211 6  -7943902.650 6  24044196.219    24044190.840          38.700
        41.600    24044191.137
 -10571583.424 6  -8253447.906 6  23892206.172    23892200.383          40.500
        40.900    23892200.387
 -23937710.628 8 -19450836.478 8  21314735.969    21314729.301          49.800
        50.300    21314729.422
  -4440756.391 6  -5370545.523 6  24720496.539    24720492.805          39.700
        38.300    24720492.691
 -28104094.805 8 -21016517.47347  20465165.352    20465154.230          52.700
        42.900
 -23056950.425 7 -11582849.13246  21513526.227    21513516.980          47.200
        36.400
 16  1  1  1 41  0.0000000  0 11G32G06G07G03G08G27G26G09G30G23G16
  -6095399.110 6     67955.93642  24936053.727    24936047.703          38.600
        16.900
  -4492518.289 5  -3484352.290 6  25130862.664    25130862.387          35.000
        37.800    25130862.508
 -18272519.014 7 -14840674.543 7  22298326.039    22298317.145          47.800
        45.100    22298317.383
 -19295643.735 7 -14841920.169 7  22212602.688    22212597.781          45.200
        46.600    22212598.605
  -6969469.837 6  -6776474.614 6  24668288.984    24668284.723          37.600
        38.700    24668285.664
  -9282158.747 6  -7996181.584 6  24031429.578    24031423.965          38.600
        40.800    24031423.969
 -10477003.424 6  -8179749.106 6  23910203.602    23910197.578          39.900
        40.100    23910197.699
 -23997229.718 8 -19497214.906 8  21303410.141    21303402.594          50.100
        50.800    21303402.773
  -4519714.827 6  -5432071.352 6  24705470.852    24705466.648          39.800
        39.200    24705466.828
 -28113627.527 8 -21023945.50047  20463351.625    20463340.211          52.900
        43.000
 -22997411.479 7 -11536455.09046  21524856.313    21524847.008          47.300
        36.300
 16  1  1  1 41 30.0000000  0 11G32G06G07G03G08G27G26G09G30G23G16
  -5989059.042 6    150818.40142  24956289.422    24956283.926          38.600
        16.900
  -4448098.732 5  -3449739.440 6  25139315.102    25139315.293          34.500
        39.200    25139315.941
 -18325010.369 8 -14881576.781 7  22288336.992    22288328.039          48.000
        45.200    22288328.395
 -19200228.906 7 -14767570.912 7  22230759.625    22230754.777          45.400
        47.200    22230755.422
  -7049990.021 6  -6839217.457 6  24652966.477    24652962.273          37.700
        38.100    24652962.156
  -9349047.674 6  -8048302.652 6  24018700.195    24018695.172          38.600
        41.100    24018694.938
 -10382178.697 6  -8105859.658 6  23928247.664    23928242.758          39.900
        40.600    23928243.051
 -24056561.510 8 -19543447.392 8  21292119.453    21292112.375          49.700
        50.200    21292112.496
  -4598540.185 6  -5493493.455 6  24690470.969    24690466.648          40.100
        38.100    24690466.590
 -28122829.959 8 -21031116.17447  20461600.430    20461588.957          53.200
        43.300
 -22937341.046 7 -11489646.90546  21536286.930    21536277.859          47.500
        36.600
 16  1  1  1 42  0.0000000  0 11G32G06G07G03G08G27G26G09G30G23G16
  -5882718.041 6    233681.60742  24976524.852    24976519.945          38.100
        16.300
  -4403391.921 6  -3414902.865 6  25147822.398    25147822.180          37.100
        37.300    25147822.359
 -18377307.121 7 -14922327.373 7  22278384.781    22278375.945          47.900
        45.800    22278376.418
 -19104534.767 7 -14693003.994 7  22248969.523    22248964.320          43.800
        46.600    22248965.086
  -7130560.201 6  -6901999.258 6  24637633.445    24637630.004          37.200
        38.800    24637630.359
  -9415730.747 6  -8100263.335 7  24006010.438    24006004.648          39.200
        42.000    24006005.648
 -10287111.709 6  -8031781.438 6  23946338.438    23946333.234          37.300
        39.400    23946332.711
 -24115704.097 8 -19589532.450 8  21280864.789    21280857.828          50.500
        50.000    21280858.066
  -4677232.041 6  -5554811.541 6  24675495.953    24675491.516          39.200
        38.400    24675492.398
 -28131700.506 8 -21038028.22947  20459912.063    20459901.000          52.700
        43.100
 -22876740.940 8 -11442425.99146  21547818.313    21547808.598          48.200
        36.500
 16  1  1  1 42 30.0000000  0 11G32G06G07G03G08G27G26G09G30G23G16
  -5776378.299 6    316543.78042  24996760.906    24996755.352          37.700
        16.300
  -4358400.696 6  -3379844.676 5  25156385.586    25156383.434          37.500
        34.400    25156381.324
 -18429409.906 7 -14962926.834 7  22268469.922    22268461.262          47.900
        45.400    22268461.324
 -19008564.266 7 -14618221.726 7  22267232.211    22267226.949          44.700
        46.500    22267227.129
  -7211177.855 6  -6964818.033 6  24622292.344    24622289.020          37.000
        38.600    24622289.258
  -9482205.014 6  -8152061.293 6  23993361.016    23993355.227          38.700
        41.200    23993355.816
 -10191805.345 6  -7957516.677 6  23964474.977    23964469.715          38.800
        40.000    23964469.660
 -24174656.006 8 -19635468.920 8  21269646.641    21269639.328          50.100
        50.400    21269639.332
  -4755790.406 6  -5616025.594 6  24660546.719    24660542.223          38.600
        37.800    24660542.047
 -28140237.626 8 -21044680.48647  20458287.727    20458276.313          53.100
        43.500
 -22815614.189 7 -11394794.69446  21559451.109    21559441.102          47.200
        36.000
 16  1  1  1 43  0.0000000  0 11G32G06G07G03G08G27G26G09G30G23G16
  -5670041.724 6    399403.52742  25016996.203    25016990.707          37.500
        17.400
  -4313127.379 5  -3344566.573 6  25165000.867    25164999.066          35.000
        39.900    25165000.828
 -18481318.857 8 -15003375.253 7  22258592.039    22258583.203          49.100
        45.400    22258583.441
 -18912319.893 7 -14543226.032 7  22285546.703    22285541.680          44.700
        46.300    22285542.031
  -7291839.613 6  -7027671.168 6  24606942.352    24606939.496          37.600
        38.500    24606939.852
  -9548467.130 6  -8203693.956 6  23980751.625    23980745.895          39.500
        41.100    23980746.367
 -10096261.940 6  -7883067.242 6  23982654.516    23982651.133          37.600
        40.400    23982650.137
 -24233415.234 8 -19681255.254 8  21258464.961    21258457.766          50.000
        50.400    21258458.121
  -4834214.778 6  -5677135.237 6  24645621.617    24645618.352          38.500
        39.000    24645618.941
 -28148439.928 8 -21051071.83447  20456726.664    20456715.309          52.400
        43.500
 -22753962.649 7 -11346754.47245  21571183.102    21571172.625          47.700
        35.500
 16  1  1  1 43 30.0000000  0 11G32G06G07G03G08G27G26G09G30G23G16
  -5563711.422 6    482258.35542  25037230.813    25037224.672          37.400
        16.900
  -4267575.365 6  -3309071.362 6  25173667.555    25173666.984          36.600
        38.500    25173666.754
 -18533035.611 7 -15043673.911 7  22248750.414    22248741.637          47.300
        45.300    22248741.875
 -18815805.350 7 -14468019.829 7  22303912.914    22303907.711          45.600
        46.000    22303908.359
  -7372543.965 6  -7090557.487 6  24591585.164    24591582.016          37.600
        39.500    24591582.254
  -9614514.881 6  -8255159.580 7  23968183.383    23968177.770          39.000
        42.000    23968178.184
 -10000485.068 6  -7808435.847 6  24000882.281    24000875.965          41.200
        39.700    24000876.086
 -24291980.925 8 -19726890.777 8  21247320.078    21247313.352          50.200
        50.700    21247313.883
  -4912505.889 6  -5738141.038 6  24630724.266    24630719.359          39.400
        38.100    24630719.301
 -28156306.798 8 -21057201.80047  20455229.625    20455218.035          53.400
        43.800
 -22691789.891 7 -11298308.10445  21583014.102    21583004.504          47.300
        35.900
 16  1  1  1 44  0.0000000  0 11G32G06G07G03G08G27G26G09G30G23G16
  -5457388.720 6    565107.28142  25057462.086    25057457.473          37.900
        16.300
  -4221746.696 6  -3273360.640 5  25182391.219    25182388.246          37.400
        35.300    25182386.313
 -18584559.327 7 -15083822.148 7  22238945.930    22238937.270          47.800
        45.700    22238937.273
 -18719022.703 7 -14392604.712 7  22322329.766    22322325.152          45.400
        46.600    22322325.625
  -7453287.119 6  -7153474.040 6  24576220.500    24576216.824          37.900
        38.900    24576217.180
  -9680344.415 6  -8306455.162 6  23955655.797    23955650.242          38.300
        41.300    23955650.129
  -9904476.667 6  -7733624.069 6  24019150.844    24019146.465          38.500
        40.500    24019145.762
 -24350350.773 8 -19772373.694 8  21236212.398    21236205.965          49.700
        51.300    21236206.086
  -4990662.830 6  -5799042.335 6  24615850.484    24615846.926          39.800
        37.600    24615846.578
 -28163836.077 8 -21063068.71247  20453797.086    20453785.262          53.200
        43.300
 -22629097.753 7 -11249457.03046  21594943.938    21594933.930          46.800
        36.100
 16  1  1  1 44 30.0000000  0 11G32G06G07G03G08G27G26G09G30G23G16
  -5351075.944 6    647948.51442  25077692.953    25077687.930          37.200
        17.800
  -4175644.002 5  -3237436.322 5  25191161.273    25191161.406          35.900
        35.100    25191159.359
 -18635890.447 8 -15123820.317 7  22229177.781    22229169.355          48.300
        45.900    22229169.770
 -18621974.858 7 -14316982.953 7  22340797.727    22340792.348          45.100
        46.600    22340792.879
  -7534066.340 6  -7216418.708 6  24560847.961    24560845.105          36.800
        38.900    24560846.047
  -9745952.837 6  -8357578.457 6  23943171.305    23943165.281          38.500
        41.300    23943165.578
  -9808239.470 6  -7658633.989 6  24037465.008    24037459.102          39.500
        40.200    24037459.398
 -24408523.200 8 -19817702.778 8  21225142.930    21225135.500          48.900
        51.100    21225135.797
  -5068685.530 6  -5859839.020 6  24601003.805    24600999.191          39.400
        38.100    24601000.660
 -28171026.568 8 -21068671.63847  20452428.586    20452417.230          53.000
        43.700
 -22565888.832 7 -11200203.27846  21606972.031    21606962.375          47.400
        36.000
 16  1  1  1 45  0.0000000  0 11G32G06G07G03G08G27G26G09G30G23G16
  -5244775.045 6    730780.40543  25097920.805    25097916.543          37.000
        18.300
  -4129269.920 6  -3201300.499 6  25199989.445    25199985.770          39.400
        37.200    25199985.305
 -18687029.140 7 -15163668.542 7  22219446.328    22219437.434          47.900
        45.600    22219437.906
 -18524664.400 7 -14241156.563 7  22359315.078    22359310.055          45.100
        46.400    22359310.465
  -7614878.895 6  -7279389.335 6  24545469.672    24545466.289          37.300
        39.200    24545466.820
  -9811336.816 6  -8408526.875 6  23930728.508    23930723.070          39.000
        41.500    23930723.074
  -9711775.913 6  -7583467.532 6  24055821.156    24055815.895          39.600
        41.800    24055816.719
 -24466496.225 8 -19862876.477 8  21214111.125    21214104.047          49.600
        50.700    21214104.227
  -5146573.615 6  -5920530.836 6  24586181.500    24586177.355          38.400
        37.300    24586177.238
 -28177876.660 8 -21074009.32147  20451124.797    20451113.383          53.200
        43.400
 -22502165.361 7 -11150548.56545  21619098.484    21619088.184          47.200
        35.500
 16  1  1  1 45 30.0000000  0 11G32G06G07G03G08G27G26G09G30G23G16
  -5138488.410 6    813601.28042  25118146.914    25118142.242          37.500
        17.400
  -4082627.215 6  -3164955.380 6  25208861.695    25208861.535          36.000
        36.900    25208860.895
 -18737976.273 8 -15203367.495 7  22209751.234    22209742.691          48.100
        45.100    22209742.695
 -18427094.439 7 -14165127.975 7  22377882.039    22377876.602          44.500
        46.200    22377877.074
  -7695722.019 6  -7342383.795 6  24530086.281    24530082.020          37.700
        38.600    24530082.727
  -9876493.611 6  -8459298.228 6  23918329.352    23918324.328          39.500
        41.700    23918324.797
  -9615089.069 6  -7508127.084 6  24074220.711    24074214.805          38.900
        40.800    24074214.457
 -24524268.501 8 -19907893.751 8  21203117.289    21203110.152          49.800
        50.500    21203110.215
  -5224327.312 6  -5981117.916 6  24571385.883    24571381.387          38.200
        37.900    24571381.742
 -28184385.489 8 -21079081.07147  20449886.328    20449874.797          52.200
        43.500
 -22437930.181 7 -11100495.11945  21631321.477    21631311.645          46.700
        35.600
 16  1  1  1 46  0.0000000  0 11G32G06G07G03G08G27G26G09G30G23G16
  -5032217.585 6    896409.77342  25138369.250    25138364.227          37.400
        17.400
  -4035718.024 6  -3128402.609 6  25217789.766    25217787.613          38.400
        38.100    25217787.031
 -18788731.576 8 -15242916.975 7  22200092.961    22200083.891          48.600
        45.400    22200084.012
 -18329267.087 7 -14088898.821 7  22396497.945    22396492.863          44.700
        46.200    22396493.391
  -7776592.335 6  -7405399.441 6  24514696.867    24514692.371          37.900
        39.200    24514693.020
  -9941419.504 6  -8509889.673 6  23905974.094    23905969.012          38.100
        41.800    23905969.070
  -9518180.723 6  -7432614.069 6  24092660.781    24092655.520          38.800
        41.400    24092656.051
 -24581837.522 8 -19952752.646 8  21192162.102    21192155.082          49.800
        50.400    21192155.145
  -5301945.648 6  -6041599.522 6  24556615.477    24556610.922          39.300
        38.800    24556611.336
 -28190550.895 8 -21083885.22447  20448713.219    20448701.570          51.900
        43.700
 -22373185.137 7 -11050044.38045  21643642.469    21643632.109          47.200
        35.400
 16  1  1  1 46 30.0000000  0 11G32G06G07G03G08G27G26G09G30G23G16
  -4925965.401 6    979203.73842  25158588.789    25158583.410          36.900
        16.900
  -3988545.714 6  -3091644.795 6  25226764.352    25226764.367          36.300
        36.700    25226762.848
 -18839295.923 7 -15282317.655 7  22190470.875    22190461.922          47.600
        45.400    22190462.102
 -18231185.974 7 -14012471.936 7  22415162.086    22415156.945          43.800
        46.300    22415157.531
  -7857487.863 6  -7468434.736 6  24499302.820    24499298.676          37.900
        39.400    24499298.973
 -10006112.225 6  -8560299.454 7  23893663.813    23893658.082          38.900
        42.400    23893658.145
  -9421054.628 6  -7356931.375 6  24111143.563    24111138.949          40.100
        41.600    24111138.949
 -24639202.517 8 -19997452.550 8  21181245.563    21181238.660          49.900
        51.000    21181238.840
  -5379429.453 6  -6101976.316 6  24541870.359    24541866.332          39.500
        38.900    24541867.156
 -28196372.216 8 -21088421.26047  20447605.281    20447593.457          52.600
        43.800
 -22307933.688 7 -10999199.04546  21656058.984    21656049.094          46.600
        36.000
 16  1  1  1 47  0.0000000  0 11G32G06G07G03G08G27G26G09G30G23G16
  -4819732.988 6   1061982.31742  25178803.844    25178798.465          37.000
        16.300
  -3941112.011 6  -3054683.354 5  25235792.664    25235790.336          36.100
        35.400    25235788.344
 -18889668.917 7 -15321569.242 7  22180884.922    22180876.379          47.700
        45.400    22180876.441
 -18132852.824 7 -13935848.635 7  22433873.820    22433869.031          44.700
        46.300    22433869.500
  -7938404.756 6  -7531486.676 6  24483905.164    24483900.844          37.300
        39.400    24483901.023
 -10070567.622 6  -8610524.276 6  23881398.055    23881392.914          38.700
        41.600    23881392.563
  -9323712.087 6  -7281080.022 6  24129667.430    24129661.348          39.400
        39.500    24129661.000
 -24696360.654 8 -20041991.271 8  21170368.688    21170361.668          50.200
        50.900    21170361.848
  -5456777.409 6  -6162247.267 6  24527151.883    24527147.152          40.000
        38.300    24527146.977
 -28201846.814 8 -21092687.11347  20446563.383    20446551.793          53.200
        43.500
 -22242177.505 7 -10947960.40245  21668572.203    21668562.547          46.400
        35.400
 16  1  1  1 47 30.0000000  0 11G32G06G07G03G08G27G26G09G30G23G16
  -4713523.913 6   1144742.70342  25199014.742    25199009.602          36.600
        16.300
  -3893420.893 6  -3017521.273 5  25244867.461    25244865.660          37.600
        34.300    25244863.082
 -18939852.198 7 -15360672.986 7  22171334.992    22171326.625          47.000
        46.000    22171326.922
 -18034271.849 7 -13859032.206 7  22452633.664    22452628.051          44.600
        46.000    22452628.875
  -8019341.346 6  -7594553.976 6  24468502.867    24468498.781          37.000
        39.800    24468498.902
 -10134784.050 6  -8660562.913 7  23869178.117    23869172.445          39.200
        42.700    23869172.977
  -9226157.274 6  -7205063.233 6  24148231.125    24148225.512          41.000
        41.100    24148225.984
 -24753311.583 8 -20086368.532 8  21159531.297    21159523.750          49.900
        51.200    21159523.988
  -5533990.820 6  -6222413.383 6  24512457.219    24512454.012          38.800
        38.600    24512453.781
 -28206975.051 8 -21096683.08647  20445587.375    20445576.254          52.400
        43.400
 -22175920.398 7 -10896331.43345  21681180.047    21681170.332          46.900
        35.700
 16  1  1  1 48  0.0000000  0 11G32G06G07G03G08G27G26G09G30G23G16
  -4607339.337 6   1227483.95542  25219220.609    25219216.113          36.300
        16.300
  -3845474.283 5  -2980160.112 6  25253989.469    25253989.426          35.200
        36.800    25253988.316
 -18989845.237 8 -15399628.490 7  22161821.688    22161812.910          48.100
        45.400    22161813.090
 -17935445.115 7 -13782024.302 7  22471439.227    22471434.086          44.500
        46.900    22471434.262
  -8100293.963 6  -7657633.770 6  24453097.844    24453093.992          36.600
        39.600    24453094.523
 -10198757.568 6  -8710412.253 6  23857004.477    23856998.512          40.200
        41.900    23856998.457
  -9128391.977 6  -7128882.449 6  24166834.758    24166829.852          39.500
        41.000    24166830.145
 -24810052.762 8 -20130582.357 8  21148733.961    21148726.824          50.300
        51.100    21148726.945
  -5611068.672 6  -6282473.872 6  24497790.680    24497785.891          39.500
        38.900    24497786.715
 -28211754.987 8 -21100407.65847  20444678.063    20444666.121          52.500
        43.100
 -22109164.125 7 -10844313.51445  21693883.742    21693873.441          47.100
        35.500
 16  1  1  1 48 30.0000000  0 11G32G06G07G03G08G27G26G09G30G23G16
  -4501181.343 6   1310204.56042  25239422.297    25239417.215          36.600
        16.300
  -3797274.872 5  -2942602.008 5  25263162.570    25263162.352          35.200
        34.400    25263160.129
 -19039648.687 7 -15438436.270 7  22152344.172    22152335.805          47.800
        45.400    22152336.043
 -17836375.312 7 -13704827.007 7  22490292.117    22490286.621          45.200
        45.800    22490287.211
  -8181259.970 6  -7720723.991 6  24437690.484    24437687.102          37.400
        39.600    24437687.457
 -10262485.108 6  -8760069.896 7  23844877.445    23844871.539          40.300
        42.300    23844871.543
  -9030418.707 6  -7052539.586 6  24185478.695    24185473.082          40.300
        39.700    24185473.262
 -24866582.328 8 -20174631.283 8  21137976.492    21137969.473          50.200
        51.600    21137969.828
  -5688010.790 6  -6342428.590 6  24483149.313    24483144.051          38.900
        38.400    24483144.348
 -28216184.924 8 -21103859.50747  20443834.758    20443823.051          53.300
        43.500
 -22041911.219 7 -10791908.59745  21706681.461    21706671.336          46.800
        35.300
 16  1  1  1 49  0.0000000  0 11G32G06G07G03G08G27G26G09G30G23G16
  -4395052.312 6   1392902.51842  25259617.516    25259612.551          36.800
        16.900
  -3748825.386 6  -2904848.975 5  25272384.227    25272381.313          38.900
        35.700    25272378.148
 -19089262.799 7 -15477096.503 7  22142902.477    22142893.934          47.700
        45.200    22142893.996
 -17737065.390 7 -13627442.602 7  22509189.438    22509184.531          44.100
        45.600    22509185.117
  -8262236.354 6  -7783822.302 6  24422281.297    24422276.977          37.400
        40.200    24422277.273
 -10325963.700 6  -8809533.561 6  23832798.016    23832791.992          40.500
        41.900    23832792.113
  -8932240.292 6  -6976036.864 6  24204161.375    24204156.113          39.200
        40.300    24204155.824
 -24922898.729 8 -20218514.103 8  21127259.617    21127252.539          51.200
        51.500    21127253.012
  -5764817.188 6  -6402277.569 6  24468532.734    24468528.121          38.400
        37.700    24468528.770
 -28220263.344 8 -21107037.44947  20443058.680    20443047.031          51.400
        43.100
 -21974164.712 7 -10739119.06445  21719573.109    21719563.219          47.500
        34.800
 16  1  1  1 49 30.0000000  0 11G32G06G07G03G08G27G26G09G30G23G16
  -4288954.541 6   1475576.16042  25279807.898    25279802.934          37.500
        14.800
  -3700128.837 6  -2866903.496 5  25281649.836    25281647.391          38.000
        34.100    25281645.340
 -19138688.457 8 -15515609.892 7  22133497.508    22133488.555          48.700
        45.800    22133488.852
 -17637518.593 7 -13549873.634 7  22528133.047    22528127.785          45.000
        46.000    22528128.258
  -8343220.542 6  -7846926.722 6  24406869.969    24406866.059          37.400
        39.600    24406866.238
 -10389190.677 6  -8858801.167 6  23820765.805    23820759.664          39.800
        41.800    23820760.723
  -8833859.700 6  -6899376.582 6  24222882.906    24222877.176          39.600
        40.000    24222876.652
 -24979000.480 8 -20262229.677 8  21116583.977    21116576.723          51.500
        50.800    21116577.137
  -5841488.011 6  -6462020.935 6  24453942.102    24453937.723          38.800
        37.500    24453937.898
 -28223989.503 8 -21109940.89947  20442349.563    20442338.031          51.900
        43.600
 -21905927.395 7 -10685947.09045  21732557.789    21732548.250          47.600
        35.200
 16  1  1  1 50  0.0000000  0 11G32G06G07G03G08G27G26G09G30G23G16
  -4182889.777 6   1558224.07242  25299992.133    25299985.758          38.100
        16.300
  -3651187.498 5  -2828767.111 6  25290960.703    25290959.898          34.000
        38.000    25290960.254
 -19187925.400 8 -15553976.234 7  22124127.891    22124119.172          48.100
        45.700    22124119.410
 -17537737.181 7 -13472121.842 7  22547120.742    22547115.660          45.500
        45.800    22547116.070
  -8424209.459 6  -7910034.824 6  24391458.570    24391453.898          38.300
        39.800    24391453.898
 -10452162.497 6  -8907869.968 6  23808782.180    23808776.215          39.400
        41.600    23808776.512
  -8735279.005 6  -6822560.417 6  24241641.586    24241635.797          40.100
        40.300    24241636.152
 -25034885.379 8 -20305776.263 8  21105949.375    21105942.180          51.300
        51.200    21105942.477
  -5918022.770 6  -6521658.261 6  24439377.820    24439373.500          38.300
        38.700    24439374.207
 -28227361.922 8 -21112568.70147  20441707.852    20441696.203          53.200
        43.500
 -21837201.458 7 -10632394.35845  21745636.203    21745626.313          47.400
        35.100
 16  1  1  1 50 30.0000000  0 11G32G06G07G03G08G27G26G09G30G23G16
  -4076860.505 6   1640844.30242  25320167.602    25320162.871          36.800
        16.900
  -3602004.672 6  -2790442.732 6  25300322.227    25300318.844          37.700
        36.800    25300318.672
 -19236974.464 8 -15592196.184 7  22114794.078    22114784.949          48.200
        46.200    22114785.305
 -17437724.353 7 -13394189.724 7  22566152.930    22566147.316          44.400
        45.700    22566148.082
  -8505200.364 6  -7973144.476 6  24376045.859    24376041.715          37.700
        40.000    24376042.363
 -10514876.544 6  -8956737.897 7  23796848.813    23796842.262          39.900
        42.200    23796842.910
  -8636501.347 6  -6745590.775 6  24260438.734    24260433.180          39.600
        40.500    24260433.828
 -25090552.022 8 -20349152.792 8  21095356.289    21095348.801          51.900
        51.100    21095349.156
  -5994421.655 6  -6581189.712 6  24424839.961    24424835.055          37.300
        38.300    24424836.055
 -28230379.175 8 -21114919.75647  20441133.766    20441121.824          51.100
        43.500
 -21767989.861 7 -10578463.20045  21758806.508    21758796.734          47.500
        34.800
 16  1  1  1 51  0.0000000  0 11G32G06G07G03G08G27G26G09G30G23G16
  -3970867.607 6   1723436.17842  25340337.328    25340332.125          38.100
        16.900
  -3552581.842 5  -2751931.299 6  25309727.383    25309725.230          35.400
        37.500    25309724.531
 -19285835.048 8 -15630269.262 7  22105496.336    22105487.500          48.600
        45.500    22105487.855
 -17337481.955 7 -13316078.731 7  22585227.734    22585222.297          45.100
        46.000    22585222.887
  -8586189.320 6  -8036252.623 6  24360634.547    24360629.465          37.400
        39.800    24360630.168
 -10577328.710 6  -9005401.748 6  23784963.352    23784957.738          39.700
        41.300    23784958.035
  -8537528.122 6  -6668468.714 6  24279272.281    24279266.785          36.600
        39.600    24279267.141
 -25145997.660 8 -20392357.110 8  21084805.375    21084797.535          51.800
        51.100    21084797.832
  -6070683.552 6  -6640614.426 6  24410327.820    24410323.090          39.100
        38.100    24410322.855
 -28233038.827 8 -21116992.17447  20440627.211    20440615.680          52.700
        43.800
 -21698294.466 7 -10524155.04545  21772069.227    21772058.926          47.500
        34.600
 16  1  1  1 51 30.0000000  0 11G32G06G07G03G08G27G26G09G30G23G16
  -3864914.546 6   1805997.03842  25360499.797    25360494.891          37.400
        15.600
  -3502922.833 6  -2713235.847 6  25319177.594    25319174.094          37.500
        38.000    25319174.039
 -19334508.426 8 -15668196.495 7  22096234.055    22096225.102          49.100
        45.600    22096225.105
 -17237013.877 7 -13237791.880 7  22604346.383    22604340.887          44.900
        45.600    22604341.242
  -8667174.538 6  -8099357.880 6  24345224.188    24345218.691          36.100
        39.900    24345219.164
 -10639517.075 6  -9053860.077 7  23773129.219    23773123.430          40.100
        42.300    23773123.492
  -8438363.180 6  -6591197.252 6  24298143.164    24298137.375          39.600
        40.300    24298137.789
 -25201221.538 8 -20435388.645 8  21074296.586    21074289.215          51.800
        51.600    21074289.277
  -6146809.383 6  -6699933.112 6  24395842.148    24395836.945          38.400
        39.200    24395836.949
 -28235341.015 8 -21118786.03947  20440189.477    20440177.301          52.600
        43.500
 -21628118.790 8 -10469472.64345  21785423.008    21785413.176          48.000
        34.400
 16  1  1  1 52  0.0000000  0 11G32G06G07G03G08G27G26G09G30G23G16
  -3759003.084 6   1888525.47842  25380654.734    25380648.828          37.600
        14.800
  -3453030.193 5  -2674358.345 5  25328669.508    25328668.820          35.400
        35.600    25328668.063
 -19382995.021 8 -15705978.161 7  22087007.430    22086998.359          48.700
        45.800    22086998.305
 -17136322.852 7 -13159331.299 7  22623506.883    22623501.504          45.500
        46.000    22623502.094
  -8748152.879 6  -8162457.783 6  24329813.563    24329809.066          38.100
        40.600    24329809.598
 -10701438.474 6  -9102110.375 7  23761346.578    23761340.262          39.700
        42.800    23761341.086
  -8339008.993 6  -6513778.357 6  24317049.828    24317043.746          37.700
        39.600    24317043.926
 -25256221.762 8 -20478245.899 8  21063830.258    21063822.770          51.900
        51.300    21063822.949
  -6222798.915 6  -6759145.591 6  24381380.445    24381376.359          39.000
        38.300    24381377.125
 -28237284.292 8 -21120300.23847  20439819.461    20439807.695          50.400
        43.200
 -21557465.472 8 -10414418.05545  21798867.859    21798858.027          48.200
        34.900
 16  1  1  1 52 30.0000000  0 11G32G06G07G03G08G27G26G09G30G23G16
  -3653134.795 6   1971020.24342  25400799.586    25400794.383          38.300
        16.900
  -3402906.251 6  -2635300.630 5  25338207.859    25338206.469          36.000
        33.400    25338205.242
 -19431294.279 8 -15743613.845 7  22077816.148    22077807.313          49.200
        46.000    22077807.375
 -17035411.088 7 -13080698.697 7  22642710.078    22642704.641          45.300
        45.300    22642705.348
  -8829121.128 6  -8225549.827 6  24314406.094    24314401.422          36.200
        40.400    24314401.832
 -10763089.352 6  -9150149.895 6  23749614.977    23749607.781          38.600
        41.800    23749608.488
  -8239467.492 6  -6436213.500 6  24335991.508    24335986.367          38.300
        39.400    24335986.426
 -25310995.980 8 -20520927.042 8  21053407.156    21053399.785          52.400
        51.200    21053399.848
  -6298651.551 6  -6818251.403 6  24366946.672    24366941.883          38.600
        38.100    24366941.648
 -28238866.728 8 -21121533.26247  20439518.164    20439506.457          50.200
        43.000
 -21486336.825 8 -10358993.09045  21812403.313    21812393.422          48.800
        34.700
 16  1  1  1 53  0.0000000  0 11G32G06G07G03G08G27G26G09G30G23G16
  -3547309.816 6   2053481.22242  25420937.758    25420933.379          36.000
        15.600
  -3352551.515 6  -2596062.947 5  25347790.266    25347788.113          37.800
        33.700    25347785.887
 -19479405.163 8 -15781102.729 7  22068660.609    22068651.773          49.100
        46.100    22068651.953
 -16934279.396 7 -13001894.732 7  22661954.406    22661949.324          45.000
        45.000    22661949.617
  -8910074.152 5  -8288630.028 6  24299000.820    24298996.031          35.400
        40.800    24298996.914
 -10824464.506 6  -9197974.555 7  23737935.023    23737929.176          40.000
        42.600    23737929.297
  -8139739.239 6  -6358503.107 6  24354969.117    24354963.914          38.500
        39.500    24354963.566
 -25365540.302 8 -20563429.056 8  21043027.461    21043019.973          51.800
        51.900    21043020.328
  -6374365.110 6  -6877248.856 6  24352539.102    24352533.488          38.600
        38.500    24352533.902
 -28240084.842 8 -21122482.40147  20439286.508    20439275.270          53.200
        43.200
 -21414733.381 8 -10303198.14145  21826029.289    21826019.047          49.100
        34.400
 16  1  1  1 53 30.0000000  0 11G32G06G07G03G08G27G26G09G30G23G16
  -3441537.351 6   2135901.33342  25441065.656    25441061.277          37.300
        16.900
  -3301976.183 6  -2556653.449 6  25357414.422    25357412.387          36.300
        36.200    25357409.867
 -19527335.538 8 -15818450.976 7  22059539.688    22059530.852          49.700
        46.000    22059530.973
 -16832937.952 7 -12922927.322 7  22681239.445    22681234.066          45.400
        44.700    22681234.188
  -8991016.225 5  -8351701.691 6  24283598.109    24283593.555          35.700
        40.900    24283594.086
 -10885568.335 6  -9245587.795 7  23726306.688    23726300.664          40.000
        42.000    23726301.430
  -8039834.258 6  -6280655.004 6  24373980.469    24373975.031          37.000
        39.400    24373974.684
 -25419860.287 8 -20605756.259 8  21032691.008    21032683.344          52.100
        51.400    21032683.465
  -6449946.852 6  -6936143.588 6  24338156.758    24338150.910          38.700
        38.100    24338151.324
 -28240944.650 8 -21123152.33447  20439122.828    20439111.063          52.800
        43.400
 -21342665.213 8 -10247041.06945  21839743.141    21839733.074          48.500
        34.400
 16  1  1  1 54  0.0000000  0 11G32G06G07G03G08G27G26G09G30G23G16
  -3335812.166 5   2218284.53042  25461184.102    25461179.781          35.200
        16.300
  -3251175.545 6  -2517068.375 6  25367080.047    25367078.949          36.900
        38.500    25367079.070
 -19575078.091 8 -15855652.872 7  22050454.719    22050445.648          49.200
        45.900    22050445.652
 -16731382.147 7 -12843792.855 7  22700564.680    22700559.539          44.700
        44.900    22700560.008
  -9071937.038 6  -8414756.767 6  24268199.359    24268194.863          36.700
        40.800    24268195.863
 -10946390.362 6  -9292981.439 7  23714732.992    23714726.852          40.600
        42.200    23714727.148
  -7939747.606 6  -6202665.327 6  24393026.172    24393020.617          37.500
        39.600    24393020.621
 -25473946.700 8 -20647901.450 8  21022398.305    21022390.934          51.200
        51.400    21022390.996
  -6525389.180 6  -6994929.676 6  24323799.711    24323794.805          38.300
        39.200    24323794.980
 -28241437.629 8 -21123536.44047  20439028.992    20439017.227          53.200
        43.000
 -21270127.733 8 -10190518.31145  21853546.375    21853536.250          48.700
        34.200
 16  1  1  1 54 30.0000000  0 11G32G06G07G03G08G27G26G09G30G23G16
  -3230139.014 6   2300627.24242  25481294.250    25481288.520          37.500
        15.600
  -3200155.139 5  -2477312.133 6  25376788.406    25376788.012          35.800
        36.600    25376787.723
 -19622635.687 8 -15892710.647 7  22041404.672    22041395.484          49.000
        45.400    22041395.723
 -16629617.568 7 -12764495.729 7  22719930.039    22719924.719          44.700
        44.700    22719925.074
  -9152836.465 6  -8477795.202 6  24252804.492    24252799.879          37.400
        40.200    24252800.469
 -11006930.330 6  -9340155.309 7  23703212.602    23703206.109          40.200
        42.100    23703205.938
  -7839484.568 6  -6124538.247 6  24412105.797    24412101.066          38.400
        39.700    24412100.715
 -25527800.423 8 -20689865.327 8  21012150.281    21012142.852          51.900
        51.000    21012143.148
  -6600694.785 6  -7053609.217 6  24309468.953    24309464.398          38.700
        39.500    24309465.340
 -28241565.071 8 -21123635.70847  20439004.594    20438993.004          52.100
        43.400
 -21197126.398 8 -10133634.10345  21867438.359    21867428.059          48.100
        33.900
 16  1  1  1 55  0.0000000  0 11G32G06G07G03G08G27G26G09G30G23G16
  -3124519.704 5   2382927.97042  25501392.406    25501387.027          33.900
        16.900
  -3148917.257 5  -2437386.367 5  25386538.320    25386538.922          35.200
        32.800    25386536.113
 -19670008.438 8 -15929624.387 7  22032389.883    22032380.988          49.200
        46.000    22032380.992
 -16527646.797 7 -12685037.940 7  22739334.430    22739328.758          44.600
        44.700    22739329.289
  -9233711.360 6  -8540814.532 6  24237414.891    24237410.219          37.500
        41.000    24237410.750
 -11067184.989 6  -9387106.867 7  23691746.109    23691740.145          41.500
        42.600    23691739.914
  -7739047.569 6  -6046275.562 6  24431217.648    24431212.625          37.700
        38.900    24431212.859
 -25581419.396 8 -20731646.287 8  21001946.805    21001939.316          51.800
        51.400    21001939.613
  -6675863.286 6  -7112181.906 6  24295165.141    24295160.176          38.300
        39.400    24295160.176
 -28241325.598 8 -21123449.07447  20439050.305    20439038.656          53.500
        43.400
 -21123663.641 7 -10076390.34945  21881417.594    21881407.645          47.200
        33.600
 16  1  1  1 55 30.0000000  0 11G32G06G07G03G08G27G26G09G30G23G16
  -3018956.354 5   2465185.14042  25521480.305    25521475.398          35.400
        15.600
  -3097465.014 5  -2397293.469 5  25396329.945    25396330.313          35.100
        35.100    25396327.035
 -19717197.016 8 -15966394.618 7  22023410.367    22023401.180          49.100
        46.200    22023401.477
 -16425472.688 7 -12605421.689 7  22758777.445    22758771.480          44.300
        44.100    22758772.012
  -9314558.753 6  -8603812.415 6  24222030.594    24222024.980          37.900
        41.400    24222025.922
 -11127151.363 6  -9433833.799 7  23680335.617    23680329.477          40.500
        42.700    23680329.891
  -7638439.064 6  -5967879.209 6  24450363.328    24450357.656          37.100
        38.300    24450357.367
 -25634801.865 8 -20773242.953 8  20991788.328    20991780.957          51.900
        51.600    20991781.195
  -6750894.779 6  -7170647.849 6  24280886.906    24280881.645          39.200
        39.400    24280882.000
 -28240717.750 8 -21122975.39047  20439165.844    20439154.078          53.400
        42.900
 -21049742.310 7 -10018789.26745  21895484.180    21895474.055          47.800
        33.800
 16  1  1  1 56  0.0000000  0 11G32G06G07G03G08G27G26G09G30G23G16
  -2913450.994 6   2547396.99042  25541557.797    25541553.359          36.200
        14.800
  -3045800.830 6  -2357035.525 6  25406161.563    25406160.113          37.600
        39.000    25406159.941
 -19764201.676 8 -16003021.530 7  22014465.375    22014456.422          48.800
        46.100    22014456.426
 -16323098.084 7 -12525649.217 7  22778258.320    22778253.117          44.500
        44.500    22778253.707
  -9395375.782 6  -8666786.644 6  24206650.859    24206646.305          37.500
        41.000    24206646.895
 -11186826.454 6  -9480333.749 7  23668977.945    23668973.215          40.400
        42.900    23668973.742
  -7537661.755 6  -5889351.365 6  24469540.641    24469534.969          37.900
        39.400    24469535.500
 -25687945.915 8 -20814653.831 8  20981675.742    20981668.078          51.500
        51.000    20981668.375
  -6825789.002 6  -7229006.832 6  24266635.375    24266629.879          38.600
        39.500    24266630.703
 -28239740.418 8 -21122213.78947  20439351.883    20439340.352          53.500
        43.200
 -20975365.152 7  -9960832.99945  21909637.617    21909627.492          47.000
        33.700
 16  1  1  1 56 30.0000000  0 11G32G06G07G03G08G27G26G09G30G23G16
  -2808005.606 6   2629562.21842  25561622.383    25561619.293          36.000
        13.900
  -2993927.695 6  -2316614.827 6  25416033.078    25416030.867          37.900
        38.300    25416031.164
 -19811023.097 8 -16039505.665 7  22005555.477    22005546.230          48.400
        45.400    22005546.586
 -16220525.810 7 -12445722.718 7  22797777.695    22797771.906          43.300
        45.000    22797772.555
  -9476158.767 6  -8729734.321 6  24191278.234    24191273.328          38.100
        41.300    24191274.094
 -11246207.264 6  -9526604.402 7  23657679.305    23657673.047          39.000
        42.000    23657673.344
  -7436718.101 6  -5810693.872 6  24488749.008    24488743.746          37.700
        39.200    24488744.395
 -25740849.768 8 -20855877.549 8  20971608.398    20971600.441          51.600
        51.300    20971600.797
  -6900545.978 6  -7287258.885 6  24252409.367    24252404.047          40.200
        39.400    24252404.168
 -28238392.194 8 -21121163.18847  20439608.594    20439596.652          51.500
        43.100
 -20900535.000 7  -9902523.74845  21923877.375    21923867.191          46.800
        33.300
 16  1  1  1 57  0.0000000  0 11G32G06G07G03G08G27G26G09G30G23G16
  -2702621.867 5   2711679.35042  25581676.539    25581672.746          35.600
        13.900
  -2941847.847 6  -2276033.075 5  25425944.156    25425941.652          37.600
        34.600    25425940.602
 -19857661.109 8 -16075846.878 7  21996680.086    21996671.191          48.800
        45.400    21996671.430
 -16117758.257 7 -12365644.062 7  22817332.898    22817327.637          43.500
        44.500    22817328.109
  -9556905.026 6  -8792653.395 6  24175912.836    24175907.871          37.500
        41.400    24175908.574
 -11305290.314 6  -9572643.039 7  23646436.406    23646429.680          39.700
        42.300    23646430.328
  -7335610.276 6  -5731908.461 6  24507989.758    24507984.145          37.900
        38.700    24507983.680
 -25793511.120 8 -20896912.303 8  20961586.961    20961579.590          52.000
        52.200    20961579.945
  -6975165.257 6  -7345403.626 6  24238209.516    24238204.609          39.200
        39.400    24238204.961
 -28236671.300 8 -21119822.19747  20439936.086    20439924.438          48.200
        43.600
 -20825254.180 7  -9843863.32145  21938202.828    21938192.879          46.800
        34.300
 16  1  1  1 57 30.0000000  0 11G32G06G07G03G08G27G26G09G30G23G16
  -2597301.598 5   2793747.11742  25601718.328    25601714.535          35.700
        15.600
  -2889563.833 6  -2235292.058 6  25435893.102    25435891.301          37.400
        37.100    25435889.547
 -19904115.552 8 -16112045.046 7  21987840.047    21987831.211          48.000
        46.400    21987831.449
 -16014798.100 7 -12285415.326 7  22836925.977    22836920.539          43.500
        44.500    22836920.719
  -9637610.854 6  -8855540.921 6  24160554.680    24160550.125          39.200
        40.700    24160550.418
 -11364072.538 6  -9618447.261 7  23635250.852    23635243.305          40.000
        42.600    23635244.129
  -7234340.602 6  -5652996.915 6  24527260.031    24527254.711          36.900
        38.600    24527254.656
 -25845928.001 8 -20937756.554 8  20951612.078    20951604.941          52.300
        51.300    20951605.297
  -7049646.426 6  -7403440.755 6  24224036.008    24224031.043          39.900
        40.200    24224030.984
 -28234576.605 8 -21118189.92447  20440334.398    20440322.516          53.000
        42.900
 -20749525.103 7  -9784853.61545  21952613.492    21952603.426          46.500
        33.900
 16  1  1  1 58  0.0000000  0 11G32G06G07G03G08G27G26G09G30G23G16
  -2492048.056 6   2875762.82642  25621747.922    25621744.305          37.400
        13.900
  -2837079.808 6  -2194395.292 6  25445880.969    25445878.641          37.800
        37.700    25445877.766
 -19950388.613 8 -16148101.886 7  21979034.984    21979025.797          48.900
        46.200    21979025.977
 -15911649.436 7 -12205039.704 7  22856553.914    22856548.949          43.400
        44.500    22856549.184
  -9718275.056 6  -8918396.014 6  24145205.070    24145200.047          39.400
        41.000    24145200.930
 -11422552.138 6  -9664015.678 7  23624122.211    23624115.074          39.900
        42.600    23624115.664
  -7132912.881 6  -5573962.232 6  24546561.289    24546555.676          36.600
        38.000    24546555.914
 -25898099.730 8 -20978409.795 8  20941684.211    20941676.664          52.300
        51.500    20941676.961
  -7123990.788 6  -7461371.278 6  24209888.813    24209883.848          40.300
        39.900    24209884.199
 -28232108.015 8 -21116266.31147  20440804.328    20440792.504          52.300
        43.500
 -20673351.954 7  -9725497.86745  21967109.000    21967098.465          47.200
        34.000
 16  1  1  1 58 30.0000000  0 11G32G06G07G03G08G27G26G09G30G23G16
  -2386862.675 5   2957725.36442  25641764.273    25641760.422          34.700
        16.300
  -2784397.805 6  -2153344.322 5  25455904.781                          36.500
        35.400    25455903.629
 -19996480.005 8 -16184017.166 7  21970263.969    21970254.605          48.200
        46.900    21970254.551
 -15808314.532 7 -12124518.956 7  22876218.180    22876212.508          42.600
        45.000    22876213.039
  -9798893.737 6  -8981215.647 6  24129863.469    24129858.738          38.900
        40.200    24129858.973
 -11480725.658 6  -9709345.594 7  23613051.281    23613045.023          38.900
        42.000    23613045.262
  -7031329.193 6  -5494806.025 6  24565891.617    24565886.414          37.400
        39.000    24565886.418
 -25950024.016 8 -21018870.210 8  20931803.422    20931796.109          52.100
        52.500    20931796.348
  -7198197.746 6  -7519194.734 6  24195767.328    24195762.246          40.600
        40.400    24195762.480
 -28229263.498 8 -21114049.75947  20441345.391    20441333.566          52.800
        43.200
 -20596737.147 7  -9665797.97045  21981688.180    21981677.879          46.100
        34.000
 16  1  1  1 59  0.0000000  0 11G32G06G07G03G08G27G26G09G30G23G16
  -2281747.404 5   3039633.35442  25661766.695    25661763.664          34.600
        14.800
  -2731520.622 5  -2112141.104 5  25465966.602                          35.500
        35.100    25465963.047
 -20042389.917 8 -16219791.066 7  21961527.469    21961518.691          48.900
        46.600    21961518.695
 -15704796.120 7 -12043855.221 7  22895916.891    22895911.809          43.000
        44.400    22895912.336
  -9879463.789 6  -9043997.416 6  24114531.266    24114526.359          39.200
        40.000    24114526.945
 -11538589.921 6  -9754434.537 7  23602040.297    23602033.570          39.900
        42.300    23602034.160
  -6929591.815 6  -5415530.109 6  24585251.336    24585246.605          37.200
        39.200    24585246.605
 -26001698.807 8 -21059136.232 8  20921969.789    20921962.359          52.900
        52.300    20921962.832
  -7272267.080 6  -7576910.942 6  24181672.781    24181667.227          40.700
        40.500    24181667.641
 -28226041.995 8 -21111539.45747  20441958.336    20441946.453          53.000
        43.600
 -20519683.217 7  -9605755.90045  21996350.758    21996340.633          47.000
        33.500
 16  1  1  1 59 30.0000000  0 11G32G06G07G03G08G27G26G09G30G23G16
  -2176704.472 5                  25681755.508                          34.600

  -2678451.347 6  -2070788.298 6  25476066.086                          37.200
        37.600    25476062.766
 -20088118.849 8 -16255423.913 7  21952825.633    21952816.328          49.100
        46.400    21952816.391
 -15601097.284 7 -11963050.879 7  22915650.148    22915644.770          44.100
        44.600    22915645.535
  -9959982.733 6  -9106739.342 6  24099208.609    24099203.586          39.600
        40.000    24099204.289
 -11596142.373 6  -9799280.485 7  23591088.672    23591081.945          39.900
        42.400    23591082.125
  -6827703.613 6  -5336136.653 6  24604640.742    24604634.895          38.300
        38.700    24604634.781
 -26053122.540 8 -21099206.624 8  20912184.336    20912176.965          52.200
        51.900    20912177.145
  -7346199.031 6  -7634520.110 6  24167603.211    24167598.070          40.600
        40.400    24167598.539
 -28222442.348 8 -21108734.49647  20442643.086    20442631.672          53.100
        43.900
 -20442193.343 7  -9545374.13745  22011097.078    22011086.602          47.000
        33.400
 16  1  1  2  0  0.0000000  0 11G32G06G07G03G08G27G26G09G30G23G16
  -2071734.826 5                  25701731.211                          34.800

 -19954811.541 5 -15532887.071 6  25486202.117                          34.800
        37.300    25486199.207
 -20133666.403 8 -16290915.424 7  21944158.164    21944148.859          49.000
        46.000    21944148.805
 -15497219.765 7 -11882107.307 7  22935417.070    22935411.988          43.800
        44.500    22935412.574
 -10040446.331 6  -9169438.137 6  24083896.750    24083892.137          39.400
        39.500    24083892.668
 -11653378.892 6  -9843880.254 7  23580196.523    23580190.324          38.000
        42.600    23580190.563
  -6725665.939 6  -5256626.660 6  24624057.188    24624051.984          36.200
        38.100    24624051.168
 -26104292.231 8 -21139079.063 8  20902446.992    20902439.504          52.300
        51.500    20902439.625
  -7419992.401 6  -7692021.276 6  24153561.336    24153555.664          40.700
        40.100    24153556.078
 -28218462.315 8 -21105633.13447  20443400.797    20443388.914          51.400
        43.300
 -20364269.283 7  -9484654.04745  22025925.156    22025914.680          46.500
        33.300
 16  1  1  2  0 30.0000000  0 11G32G06G07G03G08G27G26G09G30G23G16
  -1966843.051 5                  25721692.211                          35.900

 -19901366.599 6 -15491241.597 5  25496372.172                          36.300
        31.800    25496366.680
 -20179035.477 8 -16326267.873 7  21935524.180    21935514.758          48.500
        46.100    21935515.113
 -15393169.067 7 -11801028.800 7  22955217.477    22955211.980          43.400
        44.300    22955212.512
 -10120854.237 6  -9232093.518 6  24068595.813    24068591.082          39.000
        39.600    24068591.730
 -11710299.229 6  -9888233.667 7  23569364.984    23569358.551          39.500
        42.800    23569358.965
  -6623483.965 6  -5177004.285 6  24643502.352    24643496.621          37.700
        40.500    24643496.332
 -26155208.638 8 -21178754.139 8  20892757.922    20892750.316          52.300
        51.700    20892750.555
  -7493649.834 6  -7749416.529 6  24139544.148    24139539.242          40.000
        40.300    24139539.711
 -28214103.499 8 -21102236.61647  20444230.008    20444218.359          52.800
        42.900
 -20285916.321 7  -9423599.74945  22040835.016    22040824.891          46.600
        32.900
 16  1  1  2  1  0.0000000  0 11G32G06G07G03G08G27G26G09G30G23G16
 -53850888.769 5                  25741636.883                          33.700

 -19847736.964 5 -15449452.022 6  25506577.523                          31.600
        36.000    25506572.910
 -20224224.115 8 -16361479.712 7  21926925.648    21926916.051          49.100
        46.400    21926916.113
 -15288945.553 7 -11719815.634 7  22975051.000    22975045.270          43.400
        44.500    22975045.742
 -10201200.722 6  -9294701.046 6  24053305.852    24053301.648          39.100
        39.600    24053302.238
 -11766897.954 6  -9932336.488 7  23558594.828    23558587.867          39.600
        43.100    23558588.223
  -6521157.684 6  -5097269.484 6  24662974.156    24662969.250          36.800
        40.400    24662969.484
 -26205867.480 8 -21218228.512 8  20883117.852    20883110.715          52.300
        51.800    20883110.719
  -7567168.889 6  -7806703.950 6  24125554.148    24125548.652          40.600
        40.400    24125549.184
 -28209362.263 8 -21098542.11447  20445132.336    20445120.453          51.400
        43.100
 -20207135.069 7  -9362211.72345  22055826.828    22055816.469          47.200
        33.200
 16  1  1  2  1 30.0000000  0 11G32G06G07G03G08G27G26G09G30G23G16
 -53746154.345 5                  25761567.539                          33.900

 -19793926.027 4 -15407521.328 6  25516817.125                          28.600
        38.300    25516814.742
 -20269233.460 8 -16396551.847 7  21918360.297    21918351.051          49.500
        46.200    21918350.938
 -15184552.770 7 -11638470.580 7  22994915.633    22994910.492          43.200
        44.400    22994910.902
 -10281483.756 6  -9357259.150 6  24038029.117    24038023.797          39.700
        39.700    24038024.328
 -11823172.867 6  -9976186.995 7  23547885.867    23547879.316          40.100
        43.000    23547879.848
  -6418690.418 6  -5017424.796 6  24682472.531    24682467.566          37.900
        39.000    24682467.625
 -26256267.541 8 -21257501.244 8  20873527.211    20873519.254          52.100
        51.800    20873519.434
  -7640550.085 6  -7863883.924 6  24111590.055    24111584.441          41.100
        40.100    24111584.621
 -28204237.945 8 -21094549.11547  20446107.484    20446095.543          51.700
        43.100
 -20127929.098 7  -9300492.74645  22070899.352    22070888.875          47.600
        33.500
 16  1  1  2  2  0.0000000  0 11G32G06G07G03G08G27G26G09G30G23G16
 -53641500.977 5                  25781482.398                          33.000

 -19739935.69314 -15365450.91615  25527089.852                          26.800
        35.300    25527089.227
 -20314062.681 8 -16431483.639 7  21909829.430    21909820.301          49.700
        46.400    21909820.480
 -15079992.528 7 -11556995.034 7  23014813.086    23014807.414          42.400
        44.300    23014807.770
 -10361699.120 6  -9419764.516 6  24022764.984    24022759.371          40.000
        40.200    24022759.785
 -11879120.016 6 -10019782.088 7  23537239.266    23537232.539          39.600
        42.800    23537232.895
  -6316083.556 6  -4937471.310 6  24701997.805    24701992.250          37.600
        39.200    24701992.488
 -26306405.944 8 -21296570.093 8  20863985.984    20863978.145          52.500
        51.800    20863978.324
  -7713792.477 6  -7920955.750 6  24097652.961    24097646.879          39.800
        40.200    24097647.117
 -28198728.335 8 -21090255.88647  20447155.797    20447143.855          52.900
        43.200
 -20048300.255 7  -9238444.25845  22086051.734    22086041.668          46.600
        33.100
 16  1  1  2  2 30.0000000  0 11G32G06G07G03G08G27G26G09G30G23G16
 -53536930.983 5                  25801381.688                          30.100

 -19685768.930 4 -15323242.987 5  25537395.156                          28.300
        33.600    25537394.297
 -20358713.063 8 -16466276.066 7  21901332.563    21901323.375          48.400
        46.400    21901323.438
 -14975268.059 7 -11475391.507 7  23034741.313    23034735.641          42.600
        44.300    23034736.406
 -10441844.359 6  -9482215.248 6  24007513.445    24007507.949          39.500
        39.800    24007508.539
 -11934736.912 6 -10063119.833 7  23526655.695    23526648.734          40.200
        42.300    23526648.738
  -6213340.002 5  -4857411.343 6  24721548.938    24721544.090          35.300
        39.200    24721544.383
 -26356281.221 8 -21335433.906 8  20854495.125    20854487.637          51.600
        51.600    20854487.875
  -7786896.510 6  -7977919.763 6  24083740.820    24083735.207          41.100
        40.000    24083735.855
 -28192832.567 8 -21085661.74647  20448277.938    20448265.938          52.400
        43.600
 -19968252.006 7  -9176068.96545  22101284.430    22101274.305          47.200
        33.400
 16  1  1  2  3  0.0000000  0 11G32G06G07G03G08G27G26G09G30G23G16
 -53432451.896 5                  25821264.016                          33.200

 -19631434.441 5 -15280904.248 5  25547736.516                          30.500
        35.600    25547733.664
 -20403190.145 8 -16500933.460 7  21892869.008    21892859.762          48.800
        46.600    21892860.000
 -14870387.856 7 -11393666.641 7  23054699.742    23054693.602          42.400
        44.300    23054694.309
 -10521921.661 6  -9544613.017 6  23992275.094    23992270.480          38.900
        40.200    23992270.773
 -11990026.236 6 -10106202.327 7  23516134.023    23516127.707          40.800
        42.700    23516128.238
  -6110467.871 6  -4777251.186 6  24741125.188    24741120.281          37.300
        38.800    24741120.750
 -26405897.118 8 -21374095.608 8  20845053.359    20845045.988          51.900
        51.500    20845046.402
  -7859867.678 6  -8034780.242 6  24069855.461    24069849.145          40.600
        40.600    24069849.676
 -28186555.339 8 -21080770.37847  20449472.375    20449460.375          51.300
        43.500
 -19887792.250 7  -9113373.01445  22116595.445    22116585.262          47.700
        33.600
 16  1  1  2  3 30.0000000  0 11G32G06G07G03G08G27G26G09G30G23G16
 -53328056.581 5                  25841129.172                          32.000

 -19576925.874 4                  25558108.016                          29.600

 -20447485.484 8 -16535449.237 7  21884439.617    21884430.313          49.400
        46.500    21884430.492
 -14765345.700 7 -11311815.577 7  23074688.039    23074682.016          43.000
        44.300    23074682.781
 -10601919.244 6  -9606948.696 6  23977052.391    23977046.426          38.800
        40.600    23977046.840
 -12044976.133 6 -10149020.321 7  23505677.805    23505670.785          40.500
        42.700    23505671.375
  -6007460.611 6  -4696985.737 6  24760726.484    24760721.813          36.300
        40.000    24760721.813
 -26455242.713 8 -21412546.685 8  20835663.133    20835655.352          52.500
        51.400    20835655.648
  -7932696.961 6  -8091530.171 6  24055996.148    24055990.008          39.200
        40.400    24055990.539
 -28179886.459 8 -21075573.81647  20450741.227    20450729.578          52.400
        43.300
 -19806915.046 7  -9050351.78645  22131986.086    22131975.961          47.600
        33.100
 16  1  1  2  4  0.0000000  0 11G32G06G07G03G08G27G26G09G30G23G16
 -53223753.205 5                  25860977.227                          32.000

 -19522252.359 5 -15195827.189 6  25568514.578                          31.800
        36.500    25568511.082
 -20491605.743 8 -16569828.558 7  21876044.094    21876034.906          49.700
        46.700    21876035.145
 -14660150.749 7 -11229845.443 7  23094706.125    23094700.629          43.200
        44.100    23094701.219
 -10681840.187 6  -9669224.657 6  23961843.672    23961838.590          38.100
        40.900    23961839.352
 -12099590.075 6 -10191576.531 7  23495284.406    23495278.031          39.500
        42.800    23495278.094
  -5904326.934 6  -4616621.777 6  24780352.375    24780347.113          36.300
        39.200    24780347.059
 -26504322.420 8 -21450790.572 8  20826323.719    20826315.762          52.500
        51.500    20826316.234
  -8005390.781 6  -8148174.542 6  24042162.820    24042156.855          40.800
        40.800    24042157.152
 -28172831.061 8 -21070076.05647  20452083.820    20452071.820          53.400
        42.900
 -19725629.820 7  -8987012.61545  22147454.328    22147443.969          47.300
        32.800
